State,County,Latitude,Longitude
Alabama,Autauga,32.536382,-86.64449
Alabama,Baldwin,30.659218,-87.746067
Alabama,Barbour,31.87067,-85.405456
Alabama,Bibb,33.015893,-87.127148
Alabama,Blount,33.977448,-86.567246
Alabama,Bullock,32.101759,-85.717261
Alabama,Butler,31.751667,-86.681969
Alabama,Calhoun,33.771706,-85.822513
Alabama,Chambers,32.917943,-85.391812
Alabama,Cherokee,34.069515,-85.654242
Alabama,Chilton,32.85406,-86.726628
Alabama,Choctaw,31.991008,-88.248887
Alabama,Clarke,31.685521,-87.818624
Alabama,Clay,33.267809,-85.862051
Alabama,Cleburne,33.671981,-85.516109
Alabama,Coffee,31.402183,-85.989201
Alabama,Colbert,34.703112,-87.801457
Alabama,Conecuh,31.428293,-86.992029
Alabama,Coosa,32.931445,-86.243482
Alabama,Covington,31.243987,-86.448721
Alabama,Crenshaw,31.732826,-86.319222
Alabama,Cullman,34.131923,-86.869267
Alabama,Dale,31.430654,-85.609476
Alabama,Dallas,32.33354,-87.114356
Alabama,DeKalb,34.460929,-85.803992
Alabama,Elmore,32.597229,-86.142739
Alabama,Escambia,31.121748,-87.168429
Alabama,Etowah,34.047638,-86.03442
Alabama,Fayette,33.732249,-87.752049
Alabama,Franklin,34.441988,-87.842815
Alabama,Geneva,31.090866,-85.824346
Alabama,Greene,32.844497,-87.964201
Alabama,Hale,32.752796,-87.623061
Alabama,Henry,31.516978,-85.239971
Alabama,Houston,31.158193,-85.296398
Alabama,Jackson,34.763522,-85.9774
Alabama,Jefferson,33.553444,-86.896536
Alabama,Lamar,33.787085,-88.087431
Alabama,Lauderdale,34.904122,-87.650997
Alabama,Lawrence,34.529776,-87.321865
Alabama,Lee,32.604064,-85.353048
Alabama,Limestone,34.810239,-86.9814
Alabama,Lowndes,32.147888,-86.650586
Alabama,Macon,32.387027,-85.692887
Alabama,Madison,34.764238,-86.55108
Alabama,Marengo,32.247591,-87.791091
Alabama,Marion,34.138219,-87.881551
Alabama,Marshall,34.309564,-86.321668
Alabama,Mobile,30.684573,-88.196568
Alabama,Monroe,31.580332,-87.383266
Alabama,Montgomery,32.203651,-86.203831
Alabama,Morgan,34.454484,-86.846402
Alabama,Perry,32.639005,-87.293827
Alabama,Pickens,33.296809,-88.096878
Alabama,Pike,31.798726,-85.941997
Alabama,Randolph,33.296475,-85.464068
Alabama,Russell,32.289811,-85.18698
Alabama,St. Clair,33.712963,-86.315663
Alabama,Shelby,33.262937,-86.678104
Alabama,Sumter,32.597481,-88.200057
Alabama,Talladega,33.369277,-86.175805
Alabama,Tallapoosa,32.863369,-85.799553
Alabama,Tuscaloosa,33.290202,-87.52286
Alabama,Walker,33.791571,-87.301092
Alabama,Washington,31.406974,-88.202078
Alabama,Wilcox,31.99033,-87.302205
Alabama,Winston,34.155888,-87.364147
Alaska,Aleutians East,55.243722,-161.950749
Alaska,Aleutians West [4],51.959447,-178.338813
Alaska,Anchorage,61.177549,-149.274354
Alaska,Bethel [4],60.928916,-160.15335
Alaska,Bristol Bay,58.731373,-156.986612
Alaska,Denali,63.682732,-150.026719
Alaska,Dillingham [4],59.824816,-158.602233
Alaska,Fairbanks North Star,64.690832,-146.599867
Alaska,Haines,59.099905,-135.578102
Alaska,Hoonah-Angoon [4],58.076434,-135.1851
Alaska,Juneau,58.3727,-134.178781
Alaska,Kenai Peninsula,60.366373,-152.321973
Alaska,Ketchikan Gateway,55.449938,-131.106685
Alaska,Kodiak Island,57.553611,-153.630911
Alaska,Lake and Peninsula,58.205065,-156.705188
Alaska,Matanuska-Susitna,62.182174,-149.407974
Alaska,Nome [4],64.783686,-164.188912
Alaska,North Slope,69.449343,-153.47283
Alaska,Northwest Arctic,67.005066,-160.021086
Alaska,Petersburg [4],56.639612,-133.527996
Alaska,Prince of Wales-Hyder [4],55.415683,-132.875734
Alaska,Sitka,57.142509,-135.332624
Alaska,Skagway,59.575097,-135.335418
Alaska,Southeast Fairbanks [4],63.864997,-143.218628
Alaska,Valdez-Cordova [4],61.34984,-145.023141
Alaska,Wade Hampton [4],62.283174,-163.19095
Alaska,Wrangell,56.279121,-132.040326
Alaska,Yakutat,59.999083,-140.239593
Alaska,Yukon-Koyukuk [4],65.376131,-151.576855
Arizona,Apache,35.385845,-109.493747
Arizona,Cochise,31.881793,-109.75412
Arizona,Coconino,35.829692,-111.773728
Arizona,Gila,33.789618,-110.81187
Arizona,Graham,32.931828,-109.87831
Arizona,Greenlee,33.238872,-109.242323
Arizona,La Paz,33.727625,-114.038793
Arizona,Maricopa,33.346541,-112.495534
Arizona,Mohave,35.717705,-113.749689
Arizona,Navajo,35.390934,-110.320908
Arizona,Pima,32.128237,-111.783018
Arizona,Pinal,32.91891,-111.367257
Arizona,Santa Cruz,31.525904,-110.84519
Arizona,Yavapai,34.630044,-112.573745
Arizona,Yuma,32.773942,-113.910905
Arkansas,Arkansas,34.289574,-91.376547
Arkansas,Ashley,33.190835,-91.772267
Arkansas,Baxter,36.28071,-92.330438
Arkansas,Benton,36.337825,-94.256187
Arkansas,Boone,36.304308,-93.079204
Arkansas,Bradley,33.463819,-92.168164
Arkansas,Calhoun,33.56046,-92.513879
Arkansas,Carroll,36.337774,-93.541663
Arkansas,Chicot,33.267139,-91.297158
Arkansas,Clark,34.053312,-93.176205
Arkansas,Clay,36.367302,-90.418704
Arkansas,Cleburne,35.566288,-92.059974
Arkansas,Cleveland,33.893201,-92.188714
Arkansas,Columbia,33.21507,-93.226901
Arkansas,Conway,35.265702,-92.689248
Arkansas,Craighead,35.828268,-90.630411
Arkansas,Crawford,35.583041,-94.236224
Arkansas,Crittenden,35.211878,-90.315331
Arkansas,Cross,35.291259,-90.773894
Arkansas,Dallas,33.967823,-92.653999
Arkansas,Desha,33.828748,-91.244427
Arkansas,Drew,33.587242,-91.722778
Arkansas,Faulkner,35.146356,-92.324654
Arkansas,Franklin,35.508573,-93.887672
Arkansas,Fulton,36.383443,-91.819239
Arkansas,Garland,34.578861,-93.146915
Arkansas,Grant,34.288063,-92.423984
Arkansas,Greene,36.119922,-90.565241
Arkansas,Hempstead,33.728611,-93.665809
Arkansas,Hot Spring,34.315177,-92.944147
Arkansas,Howard,34.083179,-93.990988
Arkansas,Independence,35.737499,-91.559942
Arkansas,Izard,36.094879,-91.913625
Arkansas,Jackson,35.596605,-91.223178
Arkansas,Jefferson,34.277696,-91.930701
Arkansas,Johnson,35.573359,-93.466322
Arkansas,Lafayette,33.24066,-93.611643
Arkansas,Lawrence,36.041098,-91.101153
Arkansas,Lee,34.77975,-90.779288
Arkansas,Lincoln,33.957665,-91.727624
Arkansas,Little River,33.699497,-94.229774
Arkansas,Logan,35.21855,-93.720563
Arkansas,Lonoke,34.755114,-91.894132
Arkansas,Madison,36.012545,-93.724053
Arkansas,Marion,36.266656,-92.678588
Arkansas,Miller,33.305505,-93.901509
Arkansas,Mississippi,35.766943,-90.052209
Arkansas,Monroe,34.679513,-91.203314
Arkansas,Montgomery,34.545652,-93.664147
Arkansas,Nevada,33.666699,-93.305072
Arkansas,Newton,35.910063,-93.215084
Arkansas,Ouachita,33.591158,-92.878418
Arkansas,Perry,34.946363,-92.926877
Arkansas,Phillips,34.425842,-90.848386
Arkansas,Pike,34.158191,-93.658659
Arkansas,Poinsett,35.568981,-90.680595
Arkansas,Polk,34.490915,-94.230884
Arkansas,Pope,35.455297,-93.031535
Arkansas,Prairie,34.828225,-91.5572
Arkansas,Pulaski,34.773988,-92.316515
Arkansas,Randolph,36.341299,-91.028441
Arkansas,St. Francis,35.014438,-90.742199
Arkansas,Saline,34.648525,-92.674463
Arkansas,Scott,34.858869,-94.063641
Arkansas,Searcy,35.90966,-92.699351
Arkansas,Sebastian,35.196981,-94.274989
Arkansas,Sevier,33.994608,-94.24329
Arkansas,Sharp,36.173399,-91.471069
Arkansas,Stone,35.856989,-92.140494
Arkansas,Union,33.168219,-92.598145
Arkansas,Van Buren,35.582959,-92.515977
Arkansas,Washington,35.971209,-94.218417
Arkansas,White,35.254722,-91.753158
Arkansas,Woodruff,35.189071,-91.244418
Arkansas,Yell,34.997713,-93.408303
California,Alameda,37.648081,-121.913304
California,Alpine,38.61761,-119.798999
California,Amador,38.44355,-120.653856
California,Butte,39.665959,-121.601919
California,Calaveras,38.187844,-120.555115
California,Colusa,39.177739,-122.237563
California,Contra Costa,37.919479,-121.951543
California,Del Norte,41.749903,-123.980998
California,El Dorado,38.785532,-120.534398
California,Fresno,36.761006,-119.655019
California,Glenn,39.602546,-122.4017
California,Humboldt,40.706673,-123.925818
California,Imperial,33.040816,-115.355395
California,Inyo,36.561977,-117.403927
California,Kern,35.346629,-118.729506
California,Kings,36.072478,-119.81553
California,Lake,39.094802,-122.746757
California,Lassen,40.721089,-120.629931
California,Los Angeles,34.196398,-118.261862
California,Madera,37.210039,-119.749852
California,Marin,38.051817,-122.745974
California,Mariposa,37.570034,-119.91286
California,Mendocino,39.432388,-123.442881
California,Merced,37.194806,-120.722802
California,Modoc,41.592919,-120.71837
California,Mono,37.915836,-118.875167
California,Monterey,36.240107,-121.315573
California,Napa,38.507351,-122.325995
California,Nevada,39.295191,-120.773446
California,Orange,33.675687,-117.777207
California,Placer,39.062032,-120.722718
California,Plumas,39.99517,-120.829516
California,Riverside,33.729828,-116.002239
California,Sacramento,38.450011,-121.340441
California,San Benito,36.610702,-121.085296
California,San Bernardino,34.85722,-116.181197
California,San Diego,33.023604,-116.776117
California,San Francisco,37.727239,-123.032229
California,San Joaquin,37.935034,-121.272237
California,San Luis Obispo,35.385227,-120.44754
California,San Mateo,37.414664,-122.371542
California,Santa Barbara,34.537378,-120.038485
California,Santa Clara,37.220777,-121.690622
California,Santa Cruz,37.012488,-122.007205
California,Shasta,40.760522,-122.04355
California,Sierra,39.576925,-120.521993
California,Siskiyou,41.587986,-122.533287
California,Solano,38.267226,-121.939594
California,Sonoma,38.532574,-122.945194
California,Stanislaus,37.562384,-121.002656
California,Sutter,39.035257,-121.702758
California,Tehama,40.126156,-122.232276
California,Trinity,40.647724,-123.114404
California,Tulare,36.230453,-118.780542
California,Tuolumne,38.021451,-119.964708
California,Ventura,34.358742,-119.133143
California,Yolo,38.679268,-121.903178
California,Yuba,39.270026,-121.34428
Colorado,Adams,39.874325,-104.331872
Colorado,Alamosa,37.568442,-105.788041
Colorado,Arapahoe,39.644632,-104.331733
Colorado,Archuleta,37.202395,-107.050863
Colorado,Baca,37.303144,-102.535457
Colorado,Bent,37.931891,-103.077584
Colorado,Boulder,40.094826,-105.398382
Colorado,Broomfield,39.953383,-105.052125
Colorado,Chaffee,38.738246,-106.316972
Colorado,Cheyenne,38.835387,-102.604585
Colorado,Clear Creek,39.689403,-105.670791
Colorado,Conejos,37.213407,-106.176447
Colorado,Costilla,37.277547,-105.42894
Colorado,Crowley,38.321956,-103.787562
Colorado,Custer,38.101994,-105.373515
Colorado,Delta,38.861756,-107.864757
Colorado,Denver,39.761849,-104.880625
Colorado,Dolores,37.747602,-108.530383
Colorado,Douglas,39.326435,-104.926199
Colorado,Eagle,39.630638,-106.692944
Colorado,Elbert,39.310817,-104.117928
Colorado,El Paso,38.827383,-104.527472
Colorado,Fremont,38.455658,-105.421438
Colorado,Garfield,39.599352,-107.90978
Colorado,Gilpin,39.861082,-105.528947
Colorado,Grand,40.123289,-106.095876
Colorado,Gunnison,38.669679,-107.078108
Colorado,Hinsdale,37.811625,-107.383405
Colorado,Huerfano,37.687815,-104.959928
Colorado,Jackson,40.663432,-106.329248
Colorado,Jefferson,39.58646,-105.245601
Colorado,Kiowa,38.388466,-102.75621
Colorado,Kit Carson,39.30534,-102.603023
Colorado,Lake,39.204316,-106.349696
Colorado,La Plata,37.287367,-107.839718
Colorado,Larimer,40.663091,-105.482131
Colorado,Las Animas,37.318831,-104.04411
Colorado,Lincoln,38.99374,-103.507555
Colorado,Logan,40.728091,-103.090464
Colorado,Mesa,39.019492,-108.461837
Colorado,Mineral,37.651478,-106.9323
Colorado,Moffat,40.573984,-108.204521
Colorado,Montezuma,37.338025,-108.595786
Colorado,Montrose,38.413427,-108.263042
Colorado,Morgan,40.262354,-103.807092
Colorado,Otero,37.88417,-103.72126
Colorado,Ouray,38.1506,-107.767133
Colorado,Park,39.118914,-105.717648
Colorado,Phillips,40.594712,-102.345105
Colorado,Pitkin,39.217533,-106.915943
Colorado,Prowers,37.958181,-102.392161
Colorado,Pueblo,38.170658,-104.489893
Colorado,Rio Blanco,39.972606,-108.200685
Colorado,Rio Grande,37.485763,-106.453214
Colorado,Routt,40.48316,-106.985289
Colorado,Saguache,38.033952,-106.246675
Colorado,San Juan,37.781075,-107.670257
Colorado,San Miguel,38.009374,-108.427326
Colorado,Sedgwick,40.871568,-102.355358
Colorado,Summit,39.621023,-106.137555
Colorado,Teller,38.871994,-105.182552
Colorado,Washington,39.965413,-103.209605
Colorado,Weld,40.555794,-104.383649
Colorado,Yuma,40.000631,-102.422649
Connecticut,Fairfield [6],41.228103,-73.366757
Connecticut,Hartford [6],41.806053,-72.732916
Connecticut,Litchfield [6],41.791897,-73.235428
Connecticut,Middlesex [6],41.434525,-72.524227
Connecticut,New Haven [6],41.349717,-72.900204
Connecticut,New London [6],41.47863,-72.103452
Connecticut,Tolland [6],41.858076,-72.340977
Connecticut,Windham [6],41.824999,-71.990702
Delaware,Kent,39.097088,-75.502982
Delaware,New Castle,39.575915,-75.644132
Delaware,Sussex,38.677511,-75.335495
Florida,Alachua,29.67574,-82.357221
Florida,Baker,30.324442,-82.302284
Florida,Bay,30.237563,-85.631348
Florida,Bradford,29.946934,-82.166796
Florida,Brevard,28.298276,-80.700384
Florida,Broward,26.19352,-80.476658
Florida,Calhoun,30.388801,-85.197916
Florida,Charlotte,26.868826,-81.940858
Florida,Citrus,28.843628,-82.524796
Florida,Clay,29.987116,-81.858147
Florida,Collier,26.118713,-81.400884
Florida,Columbia,30.221305,-82.623127
Florida,DeSoto,27.190581,-81.806253
Florida,Dixie,29.580899,-83.195666
Florida,Duval,30.335245,-81.648113
Florida,Escambia,30.611664,-87.33904
Florida,Flagler,29.474894,-81.286362
Florida,Franklin,29.810176,-84.799174
Florida,Gadsden,30.57917,-84.612783
Florida,Gilchrist,29.723456,-82.795801
Florida,Glades,26.95481,-81.19082
Florida,Gulf,29.907257,-85.256537
Florida,Hamilton,30.491102,-82.951049
Florida,Hardee,27.492846,-81.82158
Florida,Hendry,26.53934,-81.151584
Florida,Hernando,28.567911,-82.464835
Florida,Highlands,27.342627,-81.340921
Florida,Hillsborough,27.90659,-82.349568
Florida,Holmes,30.866222,-85.812959
Florida,Indian River,27.700638,-80.574803
Florida,Jackson,30.787812,-85.210374
Florida,Jefferson,30.424558,-83.890859
Florida,Lafayette,29.990066,-83.17851
Florida,Lake,28.764113,-81.712282
Florida,Lee,26.552134,-81.89225
Florida,Leon,30.45931,-84.2778
Florida,Levy,29.284409,-82.783483
Florida,Liberty,30.259849,-84.868581
Florida,Madison,30.447228,-83.470437
Florida,Manatee,27.481386,-82.365784
Florida,Marion,29.202805,-82.0431
Florida,Martin,27.079954,-80.398211
Florida,Miami-Dade,25.610494,-80.499045
Florida,Monroe,25.601043,-81.206777
Florida,Nassau,30.605926,-81.764929
Florida,Okaloosa,30.665858,-86.594194
Florida,Okeechobee,27.385592,-80.887388
Florida,Orange,28.514435,-81.323295
Florida,Osceola,28.059027,-81.139312
Florida,Palm Beach,26.645763,-80.448673
Florida,Pasco,28.302024,-82.455707
Florida,Pinellas,27.903122,-82.739518
Florida,Polk,27.953115,-81.692783
Florida,Putnam,29.606006,-81.740894
Florida,St. Johns,29.890593,-81.383914
Florida,St. Lucie,27.380775,-80.443364
Florida,Santa Rosa,30.703633,-87.014255
Florida,Sarasota,27.184386,-82.365835
Florida,Seminole,28.690079,-81.13198
Florida,Sumter,28.714294,-82.074715
Florida,Suwannee,30.189244,-82.992754
Florida,Taylor,30.016943,-83.616417
Florida,Union,30.05428,-82.366918
Florida,Volusia,29.057617,-81.161813
Florida,Wakulla,30.140378,-84.375136
Florida,Walton,30.631211,-86.176614
Florida,Washington,30.602217,-85.662797
Georgia,Appling,31.739712,-82.290103
Georgia,Atkinson,31.300562,-82.883614
Georgia,Bacon,31.563327,-82.387859
Georgia,Baker,31.319622,-84.454857
Georgia,Baldwin,33.059532,-83.255362
Georgia,Banks,34.351922,-83.498441
Georgia,Barrow,33.992009,-83.712303
Georgia,Bartow,34.240918,-84.838188
Georgia,Ben Hill,31.740776,-83.14719
Georgia,Berrien,31.274308,-83.231906
Georgia,Bibb,32.808844,-83.694193
Georgia,Bleckley,32.435403,-83.331717
Georgia,Brantley,31.197334,-81.982978
Georgia,Brooks,30.833696,-83.588971
Georgia,Bryan,32.017969,-81.438543
Georgia,Bulloch,32.393408,-81.74381
Georgia,Burke,33.063737,-82.00389
Georgia,Butts,33.290355,-83.958221
Georgia,Calhoun,31.521279,-84.62629
Georgia,Camden,30.916358,-81.636516
Georgia,Candler,32.403986,-82.071446
Georgia,Carroll,33.582237,-85.080527
Georgia,Catoosa,34.899393,-85.137353
Georgia,Charlton,30.779904,-82.139644
Georgia,Chatham,31.974756,-81.091768
Georgia,Chattahoochee,32.347445,-84.788021
Georgia,Chattooga,34.474179,-85.345289
Georgia,Cherokee,34.244317,-84.475057
Georgia,Clarke,33.952234,-83.36713
Georgia,Clay,31.619831,-84.992583
Georgia,Clayton,33.552242,-84.412977
Georgia,Clinch,30.917653,-82.702614
Georgia,Cobb,33.93994,-84.574166
Georgia,Coffee,31.549245,-82.844938
Georgia,Colquitt,31.189758,-83.769741
Georgia,Columbia,33.550556,-82.251342
Georgia,Cook,31.152935,-83.429552
Georgia,Coweta,33.352897,-84.762138
Georgia,Crawford,32.709446,-83.979182
Georgia,Crisp,31.914753,-83.753338
Georgia,Dade,34.852424,-85.506201
Georgia,Dawson,34.442842,-84.173284
Georgia,Decatur,30.877961,-84.577744
Georgia,DeKalb,33.770661,-84.226343
Georgia,Dodge,32.160656,-83.156818
Georgia,Dooly,32.151995,-83.807167
Georgia,Dougherty,31.535068,-84.214444
Georgia,Douglas,33.699317,-84.765944
Georgia,Early,31.324191,-84.906723
Georgia,Echols,30.7085,-82.836132
Georgia,Effingham,32.361711,-81.343337
Georgia,Elbert,34.115017,-82.842057
Georgia,Emanuel,32.5911,-82.299763
Georgia,Evans,32.151902,-81.887618
Georgia,Fannin,34.863837,-84.319287
Georgia,Fayette,33.412717,-84.493941
Georgia,Floyd,34.263677,-85.21373
Georgia,Forsyth,34.225143,-84.127336
Georgia,Franklin,34.375155,-83.227291
Georgia,Fulton,33.790034,-84.468182
Georgia,Gilmer,34.690541,-84.453984
Georgia,Glascock,33.227491,-82.606913
Georgia,Glynn,31.212747,-81.496517
Georgia,Gordon,34.509667,-84.873862
Georgia,Grady,30.875863,-84.244772
Georgia,Greene,33.576836,-83.167103
Georgia,Gwinnett,33.959101,-84.022938
Georgia,Habersham,34.635108,-83.526406
Georgia,Hall,34.317588,-83.818497
Georgia,Hancock,33.26922,-83.000465
Georgia,Haralson,33.795165,-85.220062
Georgia,Harris,32.731549,-84.912432
Georgia,Hart,34.348733,-82.96329
Georgia,Heard,33.290968,-85.139594
Georgia,Henry,33.452881,-84.15444
Georgia,Houston,32.458381,-83.662856
Georgia,Irwin,31.604306,-83.277037
Georgia,Jackson,34.134157,-83.565133
Georgia,Jasper,33.314905,-83.687892
Georgia,Jeff Davis,31.811615,-82.636825
Georgia,Jefferson,33.051874,-82.41905
Georgia,Jenkins,32.794563,-81.971524
Georgia,Johnson,32.689831,-82.661354
Georgia,Jones,33.020226,-83.562339
Georgia,Lamar,33.07446,-84.146721
Georgia,Lanier,31.038197,-83.063164
Georgia,Laurens,32.39322,-82.926317
Georgia,Lee,31.818419,-84.146681
Georgia,Liberty,31.807245,-81.457969
Georgia,Lincoln,33.792151,-82.448299
Georgia,Long,31.749563,-81.74287
Georgia,Lowndes,30.83368,-83.268967
Georgia,Lumpkin,34.568149,-83.998828
Georgia,McDuffie,33.482464,-82.473188
Georgia,McIntosh,31.482978,-81.370199
Georgia,Macon,32.366216,-84.052162
Georgia,Madison,34.128486,-83.203637
Georgia,Marion,32.359538,-84.529561
Georgia,Meriwether,33.03022,-84.663279
Georgia,Miller,31.162908,-84.730386
Georgia,Mitchell,31.22894,-84.192407
Georgia,Monroe,33.017435,-83.922938
Georgia,Montgomery,32.172108,-82.533349
Georgia,Morgan,33.593732,-83.492324
Georgia,Murray,34.797097,-84.73799
Georgia,Muscogee,32.510197,-84.874946
Georgia,Newton,33.544046,-83.855189
Georgia,Oconee,33.834125,-83.437728
Georgia,Oglethorpe,33.866806,-83.074081
Georgia,Paulding,33.920903,-84.866979
Georgia,Peach,32.571324,-83.831978
Georgia,Pickens,34.456621,-84.490256
Georgia,Pierce,31.353988,-82.210427
Georgia,Pike,33.090769,-84.386627
Georgia,Polk,33.995961,-85.186826
Georgia,Pulaski,32.238794,-83.481855
Georgia,Putnam,33.321061,-83.37179
Georgia,Quitman,31.861487,-85.009317
Georgia,Rabun,34.883026,-83.404735
Georgia,Randolph,31.762651,-84.752311
Georgia,Richmond,33.361487,-82.074998
Georgia,Rockdale,33.652081,-84.02637
Georgia,Schley,32.263441,-84.322724
Georgia,Screven,32.744751,-81.617585
Georgia,Seminole,30.933894,-84.867592
Georgia,Spalding,33.262389,-84.286067
Georgia,Stephens,34.552914,-83.290216
Georgia,Stewart,32.073225,-84.834912
Georgia,Sumter,32.042203,-84.204283
Georgia,Talbot,32.704603,-84.530029
Georgia,Taliaferro,33.559314,-82.875208
Georgia,Tattnall,32.043768,-82.059208
Georgia,Taylor,32.554667,-84.251426
Georgia,Telfair,31.913639,-82.931062
Georgia,Terrell,31.777191,-84.439446
Georgia,Thomas,30.864616,-83.919783
Georgia,Tift,31.457003,-83.525931
Georgia,Toombs,32.126698,-82.332071
Georgia,Towns,34.90265,-83.732158
Georgia,Treutlen,32.409586,-82.570882
Georgia,Troup,33.034482,-85.02836
Georgia,Turner,31.718232,-83.628567
Georgia,Twiggs,32.665847,-83.425879
Georgia,Union,34.83377,-83.989573
Georgia,Upson,32.881837,-84.292281
Georgia,Walker,34.735827,-85.305385
Georgia,Walton,33.782649,-83.734215
Georgia,Ware,31.050881,-82.421507
Georgia,Warren,33.419169,-82.688012
Georgia,Washington,32.971848,-82.798112
Georgia,Wayne,31.547845,-81.912376
Georgia,Webster,32.046554,-84.553218
Georgia,Wheeler,32.109276,-82.738701
Georgia,White,34.643677,-83.743713
Georgia,Whitfield,34.801726,-84.968541
Georgia,Wilcox,31.962717,-83.438262
Georgia,Wilkes,33.77904,-82.747922
Georgia,Wilkinson,32.804321,-83.175587
Georgia,Worth,31.551773,-83.84996
Hawaii,Hawaiʻi,19.597764,-155.502443
Hawaii,Honolulu,21.461364,-158.201976
Hawaii,Kalawao [8],21.218764,-156.97401
Hawaii,Kauaʻi,22.012038,-159.705965
Hawaii,Maui,20.855931,-156.60155
Idaho,Ada,43.447861,-116.244456
Idaho,Adams,44.884583,-116.431873
Idaho,Bannock,42.692939,-112.228986
Idaho,Bear Lake,42.285833,-111.327445
Idaho,Benewah,47.218451,-116.633541
Idaho,Bingham,43.216357,-112.399206
Idaho,Blaine,43.394482,-113.95529
Idaho,Boise,43.987275,-115.715111
Idaho,Bonner,48.312512,-116.59694
Idaho,Bonneville,43.395171,-111.621878
Idaho,Boundary,48.773065,-116.524619
Idaho,Butte,43.6851,-113.177627
Idaho,Camas,43.463396,-114.804427
Idaho,Canyon,43.623051,-116.708527
Idaho,Caribou,42.786273,-111.544172
Idaho,Cassia,42.288635,-113.605498
Idaho,Clark,44.286251,-112.36112
Idaho,Clearwater,46.67257,-115.6535
Idaho,Custer,44.273341,-114.252251
Idaho,Elmore,43.394826,-115.470751
Idaho,Franklin,42.173589,-111.822955
Idaho,Fremont,44.218091,-111.484429
Idaho,Gem,44.061473,-116.398784
Idaho,Gooding,42.973185,-114.82142
Idaho,Idaho,45.849237,-115.467376
Idaho,Jefferson,43.796965,-112.318588
Idaho,Jerome,42.691172,-114.263009
Idaho,Kootenai,47.677113,-116.694918
Idaho,Latah,46.81892,-116.730974
Idaho,Lemhi,44.928789,-113.887841
Idaho,Lewis,46.236328,-116.42376
Idaho,Lincoln,42.986181,-114.153899
Idaho,Madison,43.789709,-111.65655
Idaho,Minidoka,42.856937,-113.64001
Idaho,Nez Perce,46.333766,-116.760903
Idaho,Oneida,42.18389,-112.520465
Idaho,Owyhee,42.593063,-116.142655
Idaho,Payette,44.00274,-116.748655
Idaho,Power,42.694126,-112.844407
Idaho,Shoshone,47.347694,-115.885092
Idaho,Teton,43.760994,-111.211765
Idaho,Twin Falls,42.352309,-114.665639
Idaho,Valley,44.771532,-115.637875
Idaho,Washington,44.448213,-116.79783
Illinois,Adams,39.986053,-91.194961
Illinois,Alexander,37.183683,-89.349506
Illinois,Bond,38.885924,-89.436592
Illinois,Boone,42.318983,-88.824295
Illinois,Brown,39.962069,-90.75031
Illinois,Bureau,41.401304,-89.528377
Illinois,Calhoun,39.164262,-90.666295
Illinois,Carroll,42.059084,-89.926485
Illinois,Cass,39.969202,-90.245705
Illinois,Champaign,40.13915,-88.197201
Illinois,Christian,39.545524,-89.279593
Illinois,Clark,39.332364,-87.791687
Illinois,Clay,38.747312,-88.483789
Illinois,Clinton,38.606423,-89.423136
Illinois,Coles,39.51368,-88.220782
Illinois,Cook,41.894294,-87.645455
Illinois,Crawford,39.00373,-87.757172
Illinois,Cumberland,39.273121,-88.240619
Illinois,DeKalb,41.894613,-88.768991
Illinois,De Witt,40.181499,-88.901853
Illinois,Douglas,39.766078,-88.222866
Illinois,DuPage,41.852058,-88.086038
Illinois,Edgar,39.679037,-87.74711
Illinois,Edwards,38.417095,-88.047941
Illinois,Effingham,39.047694,-88.592786
Illinois,Fayette,39.001125,-89.017923
Illinois,Ford,40.594423,-88.224746
Illinois,Franklin,37.991848,-88.926246
Illinois,Fulton,40.465688,-90.206793
Illinois,Gallatin,37.768677,-88.227964
Illinois,Greene,39.355444,-90.387757
Illinois,Grundy,41.29241,-88.401055
Illinois,Hamilton,38.085226,-88.539005
Illinois,Hancock,40.405792,-91.167988
Illinois,Hardin,37.517852,-88.266148
Illinois,Henderson,40.815141,-90.93848
Illinois,Henry,41.350021,-90.130838
Illinois,Iroquois,40.748867,-87.833601
Illinois,Jackson,37.786096,-89.381212
Illinois,Jasper,39.004874,-88.150763
Illinois,Jefferson,38.30078,-88.92421
Illinois,Jersey,39.080192,-90.361365
Illinois,Jo Daviess,42.362391,-90.211471
Illinois,Johnson,37.460815,-88.882962
Illinois,Kane,41.939594,-88.42804
Illinois,Kankakee,41.139494,-87.861125
Illinois,Kendall,41.58814,-88.430626
Illinois,Knox,40.930941,-90.213761
Illinois,Lake,42.326444,-87.436118
Illinois,La Salle,41.343341,-88.885931
Illinois,Lawrence,38.718954,-87.730221
Illinois,Lee,41.747442,-89.299351
Illinois,Livingston,40.894376,-88.552852
Illinois,Logan,40.12907,-89.365308
Illinois,McDonough,40.455789,-90.677579
Illinois,McHenry,42.324298,-88.452245
Illinois,McLean,40.494559,-88.844539
Illinois,Macon,39.860237,-88.961529
Illinois,Macoupin,39.2659,-89.926344
Illinois,Madison,38.827082,-89.900195
Illinois,Marion,38.648396,-88.920221
Illinois,Marshall,41.031119,-89.342371
Illinois,Mason,40.236993,-89.913575
Illinois,Massac,37.216119,-88.705658
Illinois,Menard,40.022569,-89.794133
Illinois,Mercer,41.204791,-90.741433
Illinois,Monroe,38.277983,-90.179078
Illinois,Montgomery,39.228092,-89.478007
Illinois,Morgan,39.716806,-90.202277
Illinois,Moultrie,39.636896,-88.625726
Illinois,Ogle,42.041884,-89.320176
Illinois,Peoria,40.785999,-89.767358
Illinois,Perry,38.084385,-89.368487
Illinois,Piatt,40.009056,-88.592328
Illinois,Pike,39.625106,-90.889034
Illinois,Pope,37.417169,-88.542374
Illinois,Pulaski,37.215615,-89.127755
Illinois,Putnam,41.19894,-89.298386
Illinois,Randolph,38.056515,-89.82121
Illinois,Richland,38.71155,-88.085698
Illinois,Rock Island,41.468404,-90.572203
Illinois,St. Clair,38.470198,-89.928546
Illinois,Saline,37.751653,-88.545031
Illinois,Sangamon,39.756378,-89.662311
Illinois,Schuyler,40.156905,-90.613464
Illinois,Scott,39.63698,-90.477759
Illinois,Shelby,39.384926,-88.798862
Illinois,Stark,41.096908,-89.797411
Illinois,Stephenson,42.349726,-89.665994
Illinois,Tazewell,40.508074,-89.51626
Illinois,Union,37.475104,-89.252875
Illinois,Vermilion,40.18674,-87.726772
Illinois,Wabash,38.445821,-87.839167
Illinois,Warren,40.850441,-90.620223
Illinois,Washington,38.353141,-89.417187
Illinois,Wayne,38.431948,-88.432129
Illinois,White,38.087372,-88.178585
Illinois,Whiteside,41.750571,-89.910957
Illinois,Will,41.448474,-87.978456
Illinois,Williamson,37.730353,-88.930018
Illinois,Winnebago,42.337396,-89.161205
Illinois,Woodford,40.789596,-89.210301
Indiana,Adams,40.745733,-84.936131
Indiana,Allen,41.091855,-85.07223
Indiana,Bartholomew,39.205843,-85.897999
Indiana,Benton,40.608253,-87.315479
Indiana,Blackford,40.472672,-85.32373
Indiana,Boone,40.050892,-86.469014
Indiana,Brown,39.192585,-86.23941
Indiana,Carroll,40.58498,-86.565141
Indiana,Cass,40.753799,-86.355169
Indiana,Clark,38.476217,-85.711122
Indiana,Clay,39.393951,-87.115837
Indiana,Clinton,40.305944,-86.477567
Indiana,Crawford,38.289433,-86.440871
Indiana,Daviess,38.696155,-87.076988
Indiana,Dearborn,39.151491,-84.97346
Indiana,Decatur,39.30598,-85.499831
Indiana,DeKalb,41.401189,-85.000185
Indiana,Delaware,40.227165,-85.398856
Indiana,Dubois,38.373344,-86.873385
Indiana,Elkhart,41.600693,-85.863986
Indiana,Fayette,39.639655,-85.185032
Indiana,Floyd,38.317937,-85.911474
Indiana,Fountain,40.121282,-87.234806
Indiana,Franklin,39.409762,-85.066964
Indiana,Fulton,41.050384,-86.265006
Indiana,Gibson,38.317413,-87.580566
Indiana,Grant,40.515758,-85.654946
Indiana,Greene,39.0486,-87.005245
Indiana,Hamilton,40.04987,-86.020586
Indiana,Hancock,39.822604,-85.772904
Indiana,Harrison,38.18644,-86.103681
Indiana,Hendricks,39.768749,-86.510287
Indiana,Henry,39.929576,-85.397338
Indiana,Howard,40.483537,-86.114118
Indiana,Huntington,40.826394,-85.478598
Indiana,Jackson,38.911957,-86.042516
Indiana,Jasper,41.017688,-87.118814
Indiana,Jay,40.434972,-85.00338
Indiana,Jefferson,38.783604,-85.44009
Indiana,Jennings,38.996234,-85.628111
Indiana,Johnson,39.495986,-86.0946
Indiana,Knox,38.688663,-87.420182
Indiana,Kosciusko,41.244293,-85.861575
Indiana,LaGrange,41.642468,-85.426302
Indiana,Lake,41.472239,-87.374337
Indiana,LaPorte,41.549011,-86.744729
Indiana,Lawrence,38.839815,-86.48782
Indiana,Madison,40.166203,-85.722454
Indiana,Marion,39.782976,-86.135794
Indiana,Marshall,41.325003,-86.269036
Indiana,Martin,38.705322,-86.801847
Indiana,Miami,40.772881,-86.044259
Indiana,Monroe,39.160751,-86.523325
Indiana,Montgomery,40.040296,-86.892715
Indiana,Morgan,39.482646,-86.447457
Indiana,Newton,40.962399,-87.402172
Indiana,Noble,41.400794,-85.41785
Indiana,Ohio,38.940527,-84.964299
Indiana,Orange,38.547381,-86.489257
Indiana,Owen,39.317339,-86.838845
Indiana,Parke,39.77425,-87.19695
Indiana,Perry,38.081436,-86.62654
Indiana,Pike,38.397898,-87.232532
Indiana,Porter,41.509922,-87.071308
Indiana,Posey,38.027614,-87.868653
Indiana,Pulaski,41.045272,-86.692538
Indiana,Putnam,39.665545,-86.853325
Indiana,Randolph,40.164414,-85.005004
Indiana,Ripley,39.10023,-85.260541
Indiana,Rush,39.622312,-85.466527
Indiana,St. Joseph,41.617699,-86.288159
Indiana,Scott,38.679431,-85.751898
Indiana,Shelby,39.524135,-85.792174
Indiana,Spencer,38.009789,-87.010645
Indiana,Starke,41.28322,-86.64757
Indiana,Steuben,41.643437,-85.002467
Indiana,Sullivan,39.089225,-87.415843
Indiana,Switzerland,38.825846,-85.029679
Indiana,Tippecanoe,40.38926,-86.893943
Indiana,Tipton,40.310229,-86.056207
Indiana,Union,39.623111,-84.925152
Indiana,Vanderburgh,38.02007,-87.586166
Indiana,Vermillion,39.854045,-87.462071
Indiana,Vigo,39.429143,-87.390375
Indiana,Wabash,40.843717,-85.795175
Indiana,Warren,40.352658,-87.375847
Indiana,Warrick,38.097764,-87.272023
Indiana,Washington,38.600613,-86.104751
Indiana,Wayne,39.863091,-85.006735
Indiana,Wells,40.735273,-85.212974
Indiana,White,40.75095,-86.864293
Indiana,Whitley,41.136426,-85.501892
Iowa,Adair,41.328528,-94.478164
Iowa,Adams,41.021656,-94.696906
Iowa,Allamakee,43.274964,-91.382751
Iowa,Appanoose,40.744683,-92.870345
Iowa,Audubon,41.679178,-94.904312
Iowa,Benton,42.092547,-92.05763
Iowa,Black Hawk,42.472888,-92.306059
Iowa,Boone,42.038601,-93.939138
Iowa,Bremer,42.78089,-92.327586
Iowa,Buchanan,42.470328,-91.838666
Iowa,Buena Vista,42.741522,-95.141433
Iowa,Butler,42.734708,-92.780066
Iowa,Calhoun,42.38617,-94.643683
Iowa,Carroll,42.039492,-94.867647
Iowa,Cass,41.333824,-94.933302
Iowa,Cedar,41.772355,-91.13219
Iowa,Cerro Gordo,43.075171,-93.251266
Iowa,Cherokee,42.742738,-95.633262
Iowa,Chickasaw,43.059741,-92.31721
Iowa,Clarke,41.029191,-93.784096
Iowa,Clay,43.079822,-95.149726
Iowa,Clayton,42.840998,-91.323511
Iowa,Clinton,41.898073,-90.534243
Iowa,Crawford,42.043119,-95.38909
Iowa,Dallas,41.685321,-94.040707
Iowa,Davis,40.748089,-92.410345
Iowa,Decatur,40.736379,-93.78458
Iowa,Delaware,42.473003,-91.359443
Iowa,Des Moines,40.915339,-91.186925
Iowa,Dickinson,43.389611,-95.196057
Iowa,Dubuque,42.463481,-90.878771
Iowa,Emmet,43.377984,-94.66937
Iowa,Fayette,42.86445,-91.839373
Iowa,Floyd,43.052741,-92.787367
Iowa,Franklin,42.736549,-93.271425
Iowa,Fremont,40.743726,-95.599516
Iowa,Greene,42.042494,-94.388703
Iowa,Grundy,42.403323,-92.790261
Iowa,Guthrie,41.683573,-94.501272
Iowa,Hamilton,42.390768,-93.709198
Iowa,Hancock,43.075411,-93.743697
Iowa,Hardin,42.389955,-93.241081
Iowa,Harrison,41.688584,-95.827149
Iowa,Henry,40.985864,-91.54427
Iowa,Howard,43.365313,-92.321908
Iowa,Humboldt,42.782221,-94.202775
Iowa,Ida,42.39186,-95.507421
Iowa,Iowa,41.683918,-92.059123
Iowa,Jackson,42.164281,-90.574597
Iowa,Jasper,41.685686,-93.052971
Iowa,Jefferson,41.00688,-91.967137
Iowa,Johnson,41.668737,-91.588812
Iowa,Jones,42.125118,-91.116914
Iowa,Keokuk,41.331182,-92.167721
Iowa,Kossuth,43.212478,-94.213983
Iowa,Lee,40.647588,-91.477157
Iowa,Linn,42.077951,-91.597674
Iowa,Louisa,41.218211,-91.256994
Iowa,Lucas,41.033344,-93.331467
Iowa,Lyon,43.38358,-96.207201
Iowa,Madison,41.330622,-94.015184
Iowa,Mahaska,41.330797,-92.636366
Iowa,Marion,41.331455,-93.093849
Iowa,Marshall,42.041691,-92.981452
Iowa,Mills,41.033703,-95.619101
Iowa,Mitchell,43.348564,-92.784466
Iowa,Monona,42.049432,-95.956566
Iowa,Monroe,41.028847,-92.869642
Iowa,Montgomery,41.021735,-95.15779
Iowa,Muscatine,41.483776,-91.118699
Iowa,O'Brien,43.083746,-95.625624
Iowa,Osceola,43.378542,-95.633788
Iowa,Page,40.73909,-95.14429
Iowa,Palo Alto,43.075854,-94.667297
Iowa,Plymouth,42.737585,-96.215864
Iowa,Pocahontas,42.734033,-94.678279
Iowa,Polk,41.684281,-93.56972
Iowa,Pottawattamie,41.340184,-95.544905
Iowa,Poweshiek,41.684526,-92.522882
Iowa,Ringgold,40.735334,-94.244251
Iowa,Sac,42.387526,-95.105224
Iowa,Scott,41.641679,-90.62229
Iowa,Shelby,41.679014,-95.308917
Iowa,Sioux,43.082854,-96.177929
Iowa,Story,42.037538,-93.466093
Iowa,Tama,42.074848,-92.529412
Iowa,Taylor,40.737949,-94.697108
Iowa,Union,41.02855,-94.245091
Iowa,Van Buren,40.754117,-91.952943
Iowa,Wapello,41.031263,-92.409482
Iowa,Warren,41.336769,-93.564366
Iowa,Washington,41.329401,-91.725052
Iowa,Wayne,40.739983,-93.332613
Iowa,Webster,42.434397,-94.179157
Iowa,Winnebago,43.378124,-93.743488
Iowa,Winneshiek,43.292989,-91.850788
Iowa,Woodbury,42.39322,-96.053296
Iowa,Worth,43.373491,-93.248533
Iowa,Wright,42.733007,-93.734735
Kansas,Allen,37.884229,-95.300945
Kansas,Anderson,38.215114,-95.292046
Kansas,Atchison,39.532544,-95.313398
Kansas,Barber,37.222906,-98.685052
Kansas,Barton,38.481239,-98.767837
Kansas,Bourbon,37.8561,-94.850928
Kansas,Brown,39.825931,-95.569905
Kansas,Butler,37.773681,-96.838762
Kansas,Chase,38.298553,-96.594064
Kansas,Chautauqua,37.154259,-96.245396
Kansas,Cherokee,37.169392,-94.845698
Kansas,Cheyenne,39.789256,-101.727302
Kansas,Clark,37.233831,-99.813869
Kansas,Clay,39.344964,-97.168853
Kansas,Cloud,39.487329,-97.64139
Kansas,Coffey,38.23645,-95.729137
Kansas,Comanche,37.189071,-99.254089
Kansas,Cowley,37.234507,-96.837247
Kansas,Crawford,37.505628,-94.853941
Kansas,Decatur,39.783542,-100.459708
Kansas,Dickinson,38.867735,-97.157943
Kansas,Doniphan,39.788502,-95.147225
Kansas,Douglas,38.896573,-95.290529
Kansas,Edwards,37.883595,-99.304746
Kansas,Elk,37.456026,-96.244642
Kansas,Ellis,38.914596,-99.317329
Kansas,Ellsworth,38.700845,-98.205355
Kansas,Finney,38.049855,-100.739929
Kansas,Ford,37.688365,-99.884734
Kansas,Franklin,38.558019,-95.278962
Kansas,Geary,39.002155,-96.768038
Kansas,Gove,38.917239,-100.48736
Kansas,Graham,39.349445,-99.880952
Kansas,Grant,37.547537,-101.299362
Kansas,Gray,37.744513,-100.451716
Kansas,Greeley,38.480408,-101.805984
Kansas,Greenwood,37.878659,-96.242232
Kansas,Hamilton,37.995244,-101.793689
Kansas,Harper,37.188184,-98.06659
Kansas,Harvey,38.050144,-97.436707
Kansas,Haskell,37.55855,-100.876869
Kansas,Hodgeman,38.087493,-99.898407
Kansas,Jackson,39.410989,-95.794509
Kansas,Jefferson,39.239644,-95.375314
Kansas,Jewell,39.77701,-98.222584
Kansas,Johnson,38.883907,-94.82233
Kansas,Kearny,37.994461,-101.308136
Kansas,Kingman,37.552951,-98.144529
Kansas,Kiowa,37.561231,-99.286539
Kansas,Labette,37.191468,-95.297473
Kansas,Lane,38.481286,-100.466185
Kansas,Leavenworth,39.189511,-95.038977
Kansas,Lincoln,39.047276,-98.214265
Kansas,Linn,38.216549,-94.844932
Kansas,Logan,38.91327,-101.157407
Kansas,Lyon,38.455498,-96.161589
Kansas,McPherson,38.395812,-97.647489
Kansas,Marion,38.359647,-97.102771
Kansas,Marshall,39.782709,-96.521243
Kansas,Meade,37.243886,-100.360094
Kansas,Miami,38.566772,-94.832963
Kansas,Mitchell,39.393026,-98.207362
Kansas,Montgomery,37.189537,-95.742403
Kansas,Morris,38.687696,-96.644905
Kansas,Morton,37.18525,-101.809516
Kansas,Nemaha,39.791043,-96.005381
Kansas,Neosho,37.564283,-95.315683
Kansas,Ness,38.480437,-99.908745
Kansas,Norton,39.783867,-99.899235
Kansas,Osage,38.649706,-95.727275
Kansas,Osborne,39.348649,-98.767876
Kansas,Ottawa,39.137963,-97.654803
Kansas,Pawnee,38.182873,-99.232154
Kansas,Phillips,39.784506,-99.34215
Kansas,Pottawatomie,39.382187,-96.337113
Kansas,Pratt,37.647594,-98.74012
Kansas,Rawlins,39.786198,-101.076738
Kansas,Reno,37.948185,-98.078346
Kansas,Republic,39.82891,-97.650921
Kansas,Rice,38.347178,-98.201415
Kansas,Riley,39.291211,-96.727489
Kansas,Rooks,39.346006,-99.324492
Kansas,Rush,38.523592,-99.309183
Kansas,Russell,38.916839,-98.765638
Kansas,Saline,38.786327,-97.650153
Kansas,Scott,38.481877,-100.90636
Kansas,Sedgwick,37.683807,-97.459451
Kansas,Seward,37.180585,-100.854741
Kansas,Shawnee,39.041805,-95.755664
Kansas,Sheridan,39.350543,-100.441206
Kansas,Sherman,39.351352,-101.719859
Kansas,Smith,39.78466,-98.78543
Kansas,Stafford,38.03563,-98.719889
Kansas,Stanton,37.565932,-101.789383
Kansas,Stevens,37.202356,-101.315796
Kansas,Sumner,37.236663,-97.493349
Kansas,Thomas,39.357706,-101.083439
Kansas,Trego,38.921302,-99.865423
Kansas,Wabaunsee,38.955154,-96.201262
Kansas,Wallace,38.926626,-101.771103
Kansas,Washington,39.776714,-97.095611
Kansas,Wichita,38.481922,-101.347434
Kansas,Wilson,37.558515,-95.745175
Kansas,Woodson,37.888484,-95.757553
Kansas,Wyandotte,39.115384,-94.763087
Kentucky,Adair,37.105541,-85.281401
Kentucky,Allen,36.75077,-86.192458
Kentucky,Anderson,38.005396,-84.986417
Kentucky,Ballard,37.05112,-89.009178
Kentucky,Barren,36.963614,-85.92499
Kentucky,Bath,38.152249,-83.737641
Kentucky,Bell,36.72268,-83.681046
Kentucky,Boone,38.974595,-84.731444
Kentucky,Bourbon,38.202562,-84.20986
Kentucky,Boyd,38.360004,-82.681406
Kentucky,Boyle,37.6182,-84.873016
Kentucky,Bracken,38.678523,-84.100355
Kentucky,Breathitt,37.521178,-83.322401
Kentucky,Breckinridge,37.778109,-86.432829
Kentucky,Bullitt,37.969572,-85.703036
Kentucky,Butler,37.207013,-86.682471
Kentucky,Caldwell,37.148643,-87.87051
Kentucky,Calloway,36.620978,-88.274086
Kentucky,Campbell,38.946981,-84.379583
Kentucky,Carlisle,36.857726,-88.975757
Kentucky,Carroll,38.668284,-85.124083
Kentucky,Carter,38.309555,-83.048821
Kentucky,Casey,37.321962,-84.92822
Kentucky,Christian,36.893388,-87.493554
Kentucky,Clark,37.970133,-84.144974
Kentucky,Clay,37.164466,-83.710763
Kentucky,Clinton,36.729124,-85.153499
Kentucky,Crittenden,37.358149,-88.10501
Kentucky,Cumberland,36.784227,-85.393499
Kentucky,Daviess,37.731671,-87.087139
Kentucky,Edmonson,37.227856,-86.217778
Kentucky,Elliott,38.116425,-83.097541
Kentucky,Estill,37.69246,-83.963927
Kentucky,Fayette,38.040157,-84.458443
Kentucky,Fleming,38.368431,-83.706152
Kentucky,Floyd,37.558283,-82.740337
Kentucky,Franklin,38.234919,-84.868786
Kentucky,Fulton,36.55262,-89.187723
Kentucky,Gallatin,38.760184,-84.862114
Kentucky,Garrard,37.630162,-84.545856
Kentucky,Grant,38.64921,-84.625946
Kentucky,Graves,36.723344,-88.649897
Kentucky,Grayson,37.458577,-86.344011
Kentucky,Green,37.269637,-85.561403
Kentucky,Greenup,38.563596,-82.933833
Kentucky,Hancock,37.843389,-86.792773
Kentucky,Hardin,37.695836,-85.963183
Kentucky,Harlan,36.859223,-83.221497
Kentucky,Harrison,38.443489,-84.332796
Kentucky,Hart,37.313856,-85.881995
Kentucky,Henderson,37.792542,-87.572577
Kentucky,Henry,38.451561,-85.120079
Kentucky,Hickman,36.675916,-88.97202
Kentucky,Hopkins,37.31107,-87.542196
Kentucky,Jackson,37.40332,-84.020686
Kentucky,Jefferson,38.189533,-85.657624
Kentucky,Jessamine,37.873291,-84.58396
Kentucky,Johnson,37.84926,-82.830639
Kentucky,Kenton,38.930477,-84.533492
Kentucky,Knott,37.354703,-82.949138
Kentucky,Knox,36.887476,-83.85563
Kentucky,Larue,37.545518,-85.697209
Kentucky,Laurel,37.113268,-84.119395
Kentucky,Lawrence,38.074459,-82.738305
Kentucky,Lee,37.605383,-83.718497
Kentucky,Leslie,37.087846,-83.388616
Kentucky,Letcher,37.118503,-82.861175
Kentucky,Lewis,38.532051,-83.373303
Kentucky,Lincoln,37.457257,-84.658074
Kentucky,Livingston,37.209517,-88.363426
Kentucky,Logan,36.859829,-86.881436
Kentucky,Lyon,37.023976,-88.083391
Kentucky,McCracken,37.053688,-88.712378
Kentucky,McCreary,36.731136,-84.491052
Kentucky,McLean,37.530575,-87.262931
Kentucky,Madison,37.723528,-84.277008
Kentucky,Magoffin,37.698954,-83.069716
Kentucky,Marion,37.552247,-85.269242
Kentucky,Marshall,36.882017,-88.332752
Kentucky,Martin,37.796774,-82.506623
Kentucky,Mason,38.594068,-83.828052
Kentucky,Meade,37.967476,-86.200863
Kentucky,Menifee,37.950715,-83.597345
Kentucky,Mercer,37.812085,-84.879695
Kentucky,Metcalfe,36.990394,-85.629554
Kentucky,Monroe,36.714077,-85.713508
Kentucky,Montgomery,38.038138,-83.912338
Kentucky,Morgan,37.92294,-83.258944
Kentucky,Muhlenberg,37.213816,-87.134092
Kentucky,Nelson,37.803188,-85.465955
Kentucky,Nicholas,38.337132,-84.025554
Kentucky,Ohio,37.477859,-86.844871
Kentucky,Oldham,38.400046,-85.456059
Kentucky,Owen,38.499603,-84.841509
Kentucky,Owsley,37.423452,-83.691566
Kentucky,Pendleton,38.690765,-84.354041
Kentucky,Perry,37.241282,-83.217772
Kentucky,Pike,37.482067,-82.402869
Kentucky,Powell,37.810379,-83.826985
Kentucky,Pulaski,37.108312,-84.579986
Kentucky,Robertson,38.513826,-84.063757
Kentucky,Rockcastle,37.36122,-84.314419
Kentucky,Rowan,38.205894,-83.425969
Kentucky,Russell,36.989127,-85.058976
Kentucky,Scott,38.289882,-84.579376
Kentucky,Shelby,38.239426,-85.22836
Kentucky,Simpson,36.740863,-86.581464
Kentucky,Spencer,38.026976,-85.321525
Kentucky,Taylor,37.365106,-85.326698
Kentucky,Todd,36.840338,-87.183642
Kentucky,Trigg,36.807681,-87.858652
Kentucky,Trimble,38.618193,-85.355171
Kentucky,Union,37.658029,-87.95165
Kentucky,Warren,36.995634,-86.423579
Kentucky,Washington,37.754209,-85.175416
Kentucky,Wayne,36.802011,-84.83044
Kentucky,Webster,37.520021,-87.685095
Kentucky,Whitley,36.758021,-84.14455
Kentucky,Wolfe,37.743774,-83.495068
Kentucky,Woodford,38.042789,-84.748147
Louisiana,Acadia,30.291497,-92.411037
Louisiana,Allen,30.652744,-92.819605
Louisiana,Ascension,30.202946,-90.910023
Louisiana,Assumption,29.899884,-91.050528
Louisiana,Avoyelles,31.085094,-91.993798
Louisiana,Beauregard,30.645018,-93.340253
Louisiana,Bienville,32.344268,-93.061513
Louisiana,Bossier,32.696202,-93.617977
Louisiana,Caddo,32.577195,-93.882423
Louisiana,Calcasieu,30.229559,-93.358015
Louisiana,Caldwell,32.101244,-92.11418
Louisiana,Cameron,29.871989,-93.165437
Louisiana,Catahoula,31.666517,-91.846703
Louisiana,Claiborne,32.827585,-92.991125
Louisiana,Concordia,31.469806,-91.626314
Louisiana,De Soto,32.059248,-93.740797
Louisiana,East Baton Rouge,30.544002,-91.093174
Louisiana,East Carroll,32.73017,-91.234141
Louisiana,East Feliciana,30.839784,-91.043434
Louisiana,Evangeline,30.720693,-92.404086
Louisiana,Franklin,32.138279,-91.672101
Louisiana,Grant,31.597787,-92.561716
Louisiana,Iberia,29.606013,-91.842706
Louisiana,Iberville,30.288394,-91.36315
Louisiana,Jackson,32.30448,-92.556672
Louisiana,Jefferson,29.5033,-90.036231
Louisiana,Jefferson Davis,30.269529,-92.816221
Louisiana,Lafayette,30.206507,-92.06417
Louisiana,Lafourche,29.491993,-90.394849
Louisiana,La Salle,31.680836,-92.161809
Louisiana,Lincoln,32.601148,-92.662082
Louisiana,Livingston,30.440419,-90.727474
Louisiana,Madison,32.365824,-91.240729
Louisiana,Morehouse,32.820008,-91.800399
Louisiana,Natchitoches,31.734982,-93.086106
Louisiana,Orleans,30.068636,-89.939007
Louisiana,Ouachita,32.477495,-92.154798
Louisiana,Plaquemines,29.402337,-89.298489
Louisiana,Pointe Coupee,30.708319,-91.604621
Louisiana,Rapides,31.193204,-92.535953
Louisiana,Red River,32.101213,-93.34905
Louisiana,Richland,32.418121,-91.758375
Louisiana,Sabine,31.560209,-93.559228
Louisiana,St. Bernard,29.91811,-89.263494
Louisiana,St. Charles,29.913833,-90.359314
Louisiana,St. Helena,30.821423,-90.70935
Louisiana,St. James,30.02482,-90.793956
Louisiana,St. John the Baptist,30.117471,-90.504677
Louisiana,St. Landry,30.583441,-91.989275
Louisiana,St. Martin,30.121433,-91.611481
Louisiana,St. Mary,29.629349,-91.463804
Louisiana,St. Tammany,30.410022,-89.951962
Louisiana,Tangipahoa,30.621581,-90.406633
Louisiana,Tensas,32.001489,-91.342576
Louisiana,Terrebonne,29.333266,-90.844191
Louisiana,Union,32.829349,-92.37565
Louisiana,Vermilion,29.786872,-92.29009
Louisiana,Vernon,31.110563,-93.18152
Louisiana,Washington,30.852144,-90.046253
Louisiana,Webster,32.732152,-93.339825
Louisiana,West Baton Rouge,30.464052,-91.309808
Louisiana,West Carroll,32.79248,-91.451998
Louisiana,West Feliciana,30.872701,-91.421008
Louisiana,Winn,31.941187,-92.641269
Maine,Androscoggin,44.167681,-70.207435
Maine,Aroostook,46.727057,-68.64941
Maine,Cumberland,43.808348,-70.330375
Maine,Franklin,44.973012,-70.444727
Maine,Hancock,44.564906,-68.370703
Maine,Kennebec,44.417012,-69.765764
Maine,Knox,44.042045,-69.038515
Maine,Lincoln,43.994265,-69.514029
Maine,Oxford,44.494585,-70.734688
Maine,Penobscot,45.390602,-68.657487
Maine,Piscataquis,45.917678,-69.104548
Maine,Sagadahoc,43.916694,-69.843994
Maine,Somerset,45.507482,-69.97604
Maine,Waldo,44.505361,-69.139678
Maine,Washington,44.967009,-67.609354
Maine,York,43.427239,-70.670402
Maryland,Allegany,39.612309,-78.703108
Maryland,Anne Arundel,38.993374,-76.560511
Maryland,Baltimore,39.443167,-76.616569
Maryland,Calvert,38.521358,-76.525864
Maryland,Caroline,38.871531,-75.831631
Maryland,Carroll,39.563189,-77.015512
Maryland,Cecil,39.562352,-75.941584
Maryland,Charles,38.472853,-77.015427
Maryland,Dorchester,38.429196,-76.047433
Maryland,Frederick,39.470427,-77.397627
Maryland,Garrett,39.529871,-79.269416
Maryland,Harford,39.537429,-76.299789
Maryland,Howard,39.252264,-76.924406
Maryland,Kent,39.239177,-76.1242
Maryland,Montgomery,39.137382,-77.203063
Maryland,Prince George's,38.82588,-76.847272
Maryland,Queen Anne's,39.040693,-76.082405
Maryland,St. Mary's,38.222666,-76.534271
Maryland,Somerset,38.07445,-75.853323
Maryland,Talbot,38.749427,-76.17913
Maryland,Washington,39.603621,-77.814671
Maryland,Wicomico,38.367389,-75.632206
Maryland,Worcester,38.222133,-75.309932
Maryland,Baltimore [9],39.300214,-76.610516
Massachusetts,Barnstable,41.798819,-70.211083
Massachusetts,Berkshire,42.375314,-73.213948
Massachusetts,Bristol,41.748576,-71.087062
Massachusetts,Dukes,41.380939,-70.701536
Massachusetts,Essex,42.642711,-70.865107
Massachusetts,Franklin,42.583791,-72.591655
Massachusetts,Hampden,42.136198,-72.635648
Massachusetts,Hampshire,42.339459,-72.663694
Massachusetts,Middlesex,42.479477,-71.396507
Massachusetts,Nantucket,41.305878,-70.14191
Massachusetts,Norfolk,42.169703,-71.179875
Massachusetts,Plymouth,41.987196,-70.741942
Massachusetts,Suffolk,42.33196,-71.020173
Massachusetts,Worcester,42.311693,-71.940282
Michigan,Alcona,44.682535,-82.83408
Michigan,Alger,47.080077,-86.564108
Michigan,Allegan,42.595788,-86.634745
Michigan,Alpena,44.894954,-83.426574
Michigan,Antrim,45.005457,-85.175625
Michigan,Arenac,44.03687,-83.740675
Michigan,Baraga,46.696068,-88.356022
Michigan,Barry,42.582811,-85.31455
Michigan,Bay,43.699711,-83.978701
Michigan,Benzie,44.648621,-86.494317
Michigan,Berrien,41.792639,-86.741822
Michigan,Branch,41.918585,-85.066523
Michigan,Calhoun,42.24299,-85.012385
Michigan,Cass,41.91624,-85.999457
Michigan,Charlevoix,45.513164,-85.450392
Michigan,Cheboygan,45.47612,-84.495271
Michigan,Chippewa,46.321819,-84.52063
Michigan,Clare,43.991137,-84.838325
Michigan,Clinton,42.950455,-84.591695
Michigan,Crawford,44.680208,-84.611132
Michigan,Delta,45.805101,-86.901373
Michigan,Dickinson,46.012823,-87.866119
Michigan,Eaton,42.589614,-84.846524
Michigan,Emmet,45.590094,-84.986822
Michigan,Genesee,43.021077,-83.706372
Michigan,Gladwin,43.98975,-84.389816
Michigan,Gogebic,46.488054,-89.788314
Michigan,Grand Traverse,44.718688,-85.553848
Michigan,Gratiot,43.292326,-84.60469
Michigan,Hillsdale,41.864475,-84.642409
Michigan,Houghton,46.998305,-88.652066
Michigan,Huron,43.907616,-82.857045
Michigan,Ingham,42.603534,-84.373811
Michigan,Ionia,42.94465,-85.073766
Michigan,Iosco,44.329482,-82.849447
Michigan,Iron,46.170249,-88.540409
Michigan,Isabella,43.645233,-84.839425
Michigan,Jackson,42.248474,-84.420868
Michigan,Kalamazoo,42.246266,-85.532854
Michigan,Kalkaska,44.678881,-85.088992
Michigan,Kent,43.032497,-85.547446
Michigan,Keweenaw,47.681981,-88.148802
Michigan,Lake,43.995187,-85.8114
Michigan,Lapeer,43.088633,-83.224325
Michigan,Leelanau,45.146182,-86.051574
Michigan,Lenawee,41.895915,-84.066853
Michigan,Livingston,42.602532,-83.911718
Michigan,Luce,46.940602,-85.582368
Michigan,Mackinac,46.167981,-85.303756
Michigan,Macomb,42.671467,-82.910869
Michigan,Manistee,44.350385,-86.602967
Michigan,Marquette,46.656597,-87.584028
Michigan,Mason,43.996636,-86.750814
Michigan,Mecosta,43.635295,-85.332751
Michigan,Menominee,45.544174,-87.509892
Michigan,Midland,43.648378,-84.37922
Michigan,Missaukee,44.325424,-85.085471
Michigan,Monroe,41.916097,-83.487106
Michigan,Montcalm,43.312782,-85.149468
Michigan,Montmorency,45.024134,-84.130107
Michigan,Muskegon,43.289258,-86.751892
Michigan,Newaygo,43.562709,-85.791423
Michigan,Oakland,42.660452,-83.38421
Michigan,Oceana,43.647255,-86.807575
Michigan,Ogemaw,44.33328,-84.128073
Michigan,Ontonagon,47.216604,-89.500461
Michigan,Osceola,43.997552,-85.322283
Michigan,Oscoda,44.685121,-84.124894
Michigan,Otsego,45.021794,-84.576597
Michigan,Ottawa,42.942346,-86.655342
Michigan,Presque Isle,45.489515,-83.384019
Michigan,Roscommon,44.339517,-84.611272
Michigan,Saginaw,43.328267,-84.05541
Michigan,St. Clair,42.928804,-82.668914
Michigan,St. Joseph,41.911488,-85.52287
Michigan,Sanilac,43.449155,-82.642815
Michigan,Schoolcraft,46.020758,-86.199352
Michigan,Shiawassee,42.951545,-84.146352
Michigan,Tuscola,43.487902,-83.436618
Michigan,Van Buren,42.283986,-86.305697
Michigan,Washtenaw,42.252327,-83.844634
Michigan,Wayne,42.284664,-83.261953
Michigan,Wexford,44.331375,-85.570046
Minnesota,Aitkin,46.602446,-93.41976
Minnesota,Anoka,45.27411,-93.242723
Minnesota,Becker,46.937629,-95.741757
Minnesota,Beltrami,47.878825,-94.986698
Minnesota,Benton,45.701227,-94.00144
Minnesota,Big Stone,45.419925,-96.402226
Minnesota,Blue Earth,44.038225,-94.064071
Minnesota,Brown,44.246542,-94.733647
Minnesota,Carlton,46.603818,-92.671044
Minnesota,Carver,44.821381,-93.800575
Minnesota,Cass,46.951427,-94.333773
Minnesota,Chippewa,45.028625,-95.564108
Minnesota,Chisago,45.505444,-92.903849
Minnesota,Clay,46.898377,-96.494901
Minnesota,Clearwater,47.575873,-95.371117
Minnesota,Cook,47.538571,-90.29019
Minnesota,Cottonwood,44.010711,-95.18313
Minnesota,Crow Wing,46.491114,-94.071213
Minnesota,Dakota,44.670893,-93.062481
Minnesota,Dodge,44.020706,-92.869353
Minnesota,Douglas,45.936429,-95.46061
Minnesota,Faribault,43.676522,-93.947234
Minnesota,Fillmore,43.67727,-92.093681
Minnesota,Freeborn,43.674202,-93.350289
Minnesota,Goodhue,44.406178,-92.716
Minnesota,Grant,45.930743,-96.010699
Minnesota,Hennepin,45.006064,-93.475185
Minnesota,Houston,43.66699,-91.501556
Minnesota,Hubbard,47.095551,-94.91329
Minnesota,Isanti,45.562431,-93.296339
Minnesota,Itasca,47.490843,-93.613128
Minnesota,Jackson,43.673025,-95.149704
Minnesota,Kanabec,45.94776,-93.297788
Minnesota,Kandiyohi,45.152714,-95.004981
Minnesota,Kittson,48.77604,-96.780349
Minnesota,Koochiching,48.24549,-93.782842
Minnesota,Lac qui Parle,44.999855,-96.176836
Minnesota,Lake,47.517111,-91.411704
Minnesota,Lake of the Woods,48.7681,-94.904634
Minnesota,Le Sueur,44.373397,-93.73018
Minnesota,Lincoln,44.408238,-96.272032
Minnesota,Lyon,44.409195,-95.847268
Minnesota,McLeod,44.821644,-94.27232
Minnesota,Mahnomen,47.325842,-95.810703
Minnesota,Marshall,48.362728,-96.357761
Minnesota,Martin,43.677118,-94.537198
Minnesota,Meeker,45.123156,-94.527346
Minnesota,Mille Lacs,45.929043,-93.632996
Minnesota,Morrison,46.020484,-94.266619
Minnesota,Mower,43.666249,-92.759514
Minnesota,Murray,44.015594,-95.761581
Minnesota,Nicollet,44.35882,-94.245685
Minnesota,Nobles,43.677686,-95.763132
Minnesota,Norman,47.32947,-96.463807
Minnesota,Olmsted,44.00343,-92.406722
Minnesota,Otter Tail,46.405725,-95.714578
Minnesota,Pennington,48.069247,-96.037725
Minnesota,Pine,46.10094,-92.763094
Minnesota,Pipestone,44.015361,-96.257015
Minnesota,Polk,47.774254,-96.400027
Minnesota,Pope,45.589623,-95.446705
Minnesota,Ramsey,45.01525,-93.100141
Minnesota,Red Lake,47.865487,-96.08718
Minnesota,Redwood,44.403536,-95.254242
Minnesota,Renville,44.723697,-94.955617
Minnesota,Rice,44.350943,-93.298503
Minnesota,Rock,43.669587,-96.263238
Minnesota,Roseau,48.761066,-95.82153
Minnesota,St. Louis,47.583852,-92.463645
Minnesota,Scott,44.651932,-93.534553
Minnesota,Sherburne,45.443171,-93.775092
Minnesota,Sibley,44.575734,-94.230123
Minnesota,Stearns,45.555235,-94.610482
Minnesota,Steele,44.015261,-93.220453
Minnesota,Stevens,45.593461,-95.992315
Minnesota,Swift,45.27545,-95.690398
Minnesota,Todd,46.066569,-94.900576
Minnesota,Traverse,45.76984,-96.475049
Minnesota,Wabasha,44.289693,-92.233341
Minnesota,Wadena,46.586784,-94.988331
Minnesota,Waseca,44.01846,-93.589844
Minnesota,Washington,45.037929,-92.890117
Minnesota,Watonwan,43.978366,-94.614128
Minnesota,Wilkin,46.362335,-96.476657
Minnesota,Winona,43.982268,-91.776708
Minnesota,Wright,45.175091,-93.966397
Minnesota,Yellow Medicine,44.715736,-95.862756
Mississippi,Adams,31.486218,-91.351781
Mississippi,Alcorn,34.886648,-88.581014
Mississippi,Amite,31.203933,-90.795542
Mississippi,Attala,33.09047,-89.588622
Mississippi,Benton,34.810773,-89.200029
Mississippi,Bolivar,33.799278,-90.884476
Mississippi,Calhoun,33.936634,-89.337114
Mississippi,Carroll,33.440795,-89.918887
Mississippi,Chickasaw,33.921654,-88.945808
Mississippi,Choctaw,33.345964,-89.251332
Mississippi,Claiborne,31.97281,-90.915424
Mississippi,Clarke,32.048448,-88.685964
Mississippi,Clay,33.661734,-88.783326
Mississippi,Coahoma,34.22867,-90.603165
Mississippi,Copiah,31.866915,-90.448758
Mississippi,Covington,31.633331,-89.548897
Mississippi,DeSoto,34.874266,-89.99324
Mississippi,Forrest,31.18858,-89.259447
Mississippi,Franklin,31.477798,-90.895884
Mississippi,George,30.855431,-88.642268
Mississippi,Greene,31.212846,-88.634811
Mississippi,Grenada,33.770031,-89.80274
Mississippi,Hancock,30.391437,-89.47985
Mississippi,Harrison,30.416536,-89.083376
Mississippi,Hinds,32.267924,-90.4659
Mississippi,Holmes,33.125942,-90.091197
Mississippi,Humphreys,33.132978,-90.523911
Mississippi,Issaquena,32.754977,-90.988552
Mississippi,Itawamba,34.281075,-88.363127
Mississippi,Jackson,30.458491,-88.619991
Mississippi,Jasper,32.016989,-89.11943
Mississippi,Jefferson,31.733633,-91.043878
Mississippi,Jefferson Davis,31.564734,-89.826626
Mississippi,Jones,31.621044,-89.167262
Mississippi,Kemper,32.750136,-88.625631
Mississippi,Lafayette,34.349298,-89.485903
Mississippi,Lamar,31.197135,-89.514952
Mississippi,Lauderdale,32.403998,-88.660449
Mississippi,Lawrence,31.550009,-90.10753
Mississippi,Leake,32.753268,-89.522568
Mississippi,Lee,34.288965,-88.680887
Mississippi,Leflore,33.54979,-90.294934
Mississippi,Lincoln,31.535216,-90.453566
Mississippi,Lowndes,33.471424,-88.439723
Mississippi,Madison,32.63437,-90.03416
Mississippi,Marion,31.230126,-89.821736
Mississippi,Marshall,34.76619,-89.504231
Mississippi,Monroe,33.89003,-88.485038
Mississippi,Montgomery,33.500714,-89.639625
Mississippi,Neshoba,32.752518,-89.119274
Mississippi,Newton,32.40197,-89.118412
Mississippi,Noxubee,33.10627,-88.565787
Mississippi,Oktibbeha,33.422313,-88.876151
Mississippi,Panola,34.365205,-89.963065
Mississippi,Pearl River,30.773791,-89.586832
Mississippi,Perry,31.169307,-88.988755
Mississippi,Pike,31.177517,-90.397725
Mississippi,Pontotoc,34.227081,-89.037239
Mississippi,Prentiss,34.620866,-88.52224
Mississippi,Quitman,34.25264,-90.290525
Mississippi,Rankin,32.262057,-89.946552
Mississippi,Scott,32.427127,-89.533209
Mississippi,Sharkey,32.89249,-90.827388
Mississippi,Simpson,31.902503,-89.917707
Mississippi,Smith,32.019034,-89.494973
Mississippi,Stone,30.790184,-89.112297
Mississippi,Sunflower,33.605529,-90.59509
Mississippi,Tallahatchie,33.955891,-90.172833
Mississippi,Tate,34.649553,-89.943105
Mississippi,Tippah,34.763618,-88.918819
Mississippi,Tishomingo,34.737699,-88.236067
Mississippi,Tunica,34.652201,-90.37177
Mississippi,Union,34.489101,-89.0023
Mississippi,Walthall,31.164492,-90.103431
Mississippi,Warren,32.357005,-90.851791
Mississippi,Washington,33.273131,-90.94443
Mississippi,Wayne,31.64476,-88.682057
Mississippi,Webster,33.612048,-89.283836
Mississippi,Wilkinson,31.160249,-91.325567
Mississippi,Winston,33.078724,-89.037391
Mississippi,Yalobusha,34.030669,-89.703793
Mississippi,Yazoo,32.765675,-90.387928
Missouri,Adair,40.190666,-92.603592
Missouri,Andrew,39.988863,-94.803551
Missouri,Atchison,40.431846,-95.437555
Missouri,Audrain,39.21448,-91.843415
Missouri,Barry,36.699378,-93.834326
Missouri,Barton,37.500799,-94.344089
Missouri,Bates,38.257217,-94.339246
Missouri,Benton,38.301036,-93.287942
Missouri,Bollinger,37.318349,-90.024601
Missouri,Boone,38.989657,-92.310779
Missouri,Buchanan,39.66037,-94.808173
Missouri,Butler,36.71518,-90.40313
Missouri,Caldwell,39.658998,-93.979179
Missouri,Callaway,38.835966,-91.924089
Missouri,Camden,38.031995,-92.765138
Missouri,Cape Girardeau,37.383882,-89.684908
Missouri,Carroll,39.427375,-93.500227
Missouri,Carter,36.944783,-90.945626
Missouri,Cass,38.647159,-94.354242
Missouri,Cedar,37.733655,-93.850014
Missouri,Chariton,39.517969,-92.961621
Missouri,Christian,36.969739,-93.187614
Missouri,Clark,40.407275,-91.729472
Missouri,Clay,39.315551,-94.421502
Missouri,Clinton,39.608723,-94.395803
Missouri,Cole,38.506847,-92.271404
Missouri,Cooper,38.845386,-92.812323
Missouri,Crawford,37.966561,-91.313933
Missouri,Dade,37.43235,-93.854878
Missouri,Dallas,37.683583,-93.033812
Missouri,Daviess,39.962839,-93.970053
Missouri,DeKalb,39.894665,-94.40719
Missouri,Dent,37.60325,-91.495916
Missouri,Douglas,36.946517,-92.515892
Missouri,Dunklin,36.153025,-90.062254
Missouri,Franklin,38.408313,-91.07341
Missouri,Gasconade,38.441183,-91.50578
Missouri,Gentry,40.209379,-94.40411
Missouri,Greene,37.258196,-93.340641
Missouri,Grundy,40.112541,-93.565054
Missouri,Harrison,40.34562,-93.992582
Missouri,Henry,38.386491,-93.792628
Missouri,Hickory,37.9367,-93.322835
Missouri,Holt,40.095724,-95.219072
Missouri,Howard,39.143365,-92.695926
Missouri,Howell,36.774369,-91.887368
Missouri,Iron,37.62596,-90.699627
Missouri,Jackson,39.007233,-94.342507
Missouri,Jasper,37.200865,-94.338869
Missouri,Jefferson,38.257414,-90.543138
Missouri,Johnson,38.74588,-93.805999
Missouri,Knox,40.136776,-92.146809
Missouri,Laclede,37.65969,-92.594832
Missouri,Lafayette,39.068705,-93.802639
Missouri,Lawrence,37.106135,-93.833262
Missouri,Lewis,40.084559,-91.728803
Missouri,Lincoln,39.058568,-90.957771
Missouri,Linn,39.86444,-93.108019
Missouri,Livingston,39.778587,-93.548201
Missouri,McDonald,36.630218,-94.343956
Missouri,Macon,39.829795,-92.56434
Missouri,Madison,37.473235,-90.345453
Missouri,Maries,38.162615,-91.923601
Missouri,Marion,39.807538,-91.635379
Missouri,Mercer,40.421414,-93.567631
Missouri,Miller,38.21672,-92.429871
Missouri,Mississippi,36.826264,-89.295929
Missouri,Moniteau,38.633037,-92.583642
Missouri,Monroe,39.49827,-92.006458
Missouri,Montgomery,38.935162,-91.465437
Missouri,Morgan,38.420807,-92.874835
Missouri,New Madrid,36.594261,-89.655949
Missouri,Newton,36.908017,-94.334741
Missouri,Nodaway,40.360484,-94.883281
Missouri,Oregon,36.684867,-91.402902
Missouri,Osage,38.464254,-91.859504
Missouri,Ozark,36.649643,-92.45858
Missouri,Pemiscot,36.209916,-89.785942
Missouri,Perry,37.71113,-89.802125
Missouri,Pettis,38.727367,-93.285207
Missouri,Phelps,37.866326,-91.790349
Missouri,Pike,39.344178,-91.171042
Missouri,Platte,39.378696,-94.761472
Missouri,Polk,37.616761,-93.400817
Missouri,Pulaski,37.824835,-92.207022
Missouri,Putnam,40.478606,-93.014531
Missouri,Ralls,39.553455,-91.524787
Missouri,Randolph,39.441601,-92.492725
Missouri,Ray,39.308401,-93.995746
Missouri,Reynolds,37.360857,-90.969516
Missouri,Ripley,36.648902,-90.86706
Missouri,St. Charles,38.781102,-90.674915
Missouri,St. Clair,38.039069,-93.773077
Missouri,Ste. Genevieve,37.89018,-90.18117
Missouri,St. Francois,37.810707,-90.473868
Missouri,St. Louis,38.640702,-90.445954
Missouri,Saline,39.13584,-93.204164
Missouri,Schuyler,40.469361,-92.519016
Missouri,Scotland,40.447686,-92.142824
Missouri,Scott,37.047793,-89.568098
Missouri,Shannon,37.15198,-91.398364
Missouri,Shelby,39.797531,-92.088719
Missouri,Stoddard,36.855428,-89.941735
Missouri,Stone,36.747857,-93.467782
Missouri,Sullivan,40.209587,-93.109783
Missouri,Taney,36.649827,-93.042819
Missouri,Texas,37.314257,-91.964478
Missouri,Vernon,37.850196,-94.341597
Missouri,Warren,38.761902,-91.159307
Missouri,Washington,37.942315,-90.897056
Missouri,Wayne,37.113825,-90.460868
Missouri,Webster,37.280804,-92.87608
Missouri,Worth,40.480482,-94.419129
Missouri,Wright,37.267636,-92.48001
Missouri,St. Louis [9],38.635699,-90.244582
Montana,Beaverhead,45.133863,-112.892869
Montana,Big Horn,45.407869,-107.518163
Montana,Blaine,48.428282,-108.967648
Montana,Broadwater,46.334476,-111.496103
Montana,Carbon,45.224475,-109.028551
Montana,Carter,45.516825,-104.515324
Montana,Cascade,47.316443,-111.350571
Montana,Chouteau,47.886837,-110.436189
Montana,Custer,46.261481,-105.550508
Montana,Daniels,48.794429,-105.541739
Montana,Dawson,47.272425,-104.901027
Montana,Deer Lodge,46.099059,-113.139108
Montana,Fallon,46.318184,-104.405718
Montana,Fergus,47.222997,-109.22328
Montana,Flathead,48.314696,-114.054319
Montana,Gallatin,45.535559,-111.173443
Montana,Garfield,47.281174,-106.982212
Montana,Glacier,48.705671,-112.990502
Montana,Golden Valley,46.380624,-109.174586
Montana,Granite,46.395358,-113.425683
Montana,Hill,48.628331,-110.106372
Montana,Jefferson,46.126557,-112.056771
Montana,Judith Basin,47.032558,-110.30532
Montana,Lake,47.642901,-114.083687
Montana,Lewis and Clark,47.122133,-112.382954
Montana,Liberty,48.559654,-111.036924
Montana,Lincoln,48.542232,-115.404343
Montana,McCone,47.629628,-105.757222
Montana,Madison,45.319288,-111.917328
Montana,Meagher,46.585706,-110.921781
Montana,Mineral,47.155213,-115.06455
Montana,Missoula,47.027263,-113.892681
Montana,Musselshell,46.505665,-108.436982
Montana,Park,45.421905,-110.532798
Montana,Petroleum,47.141917,-108.226575
Montana,Phillips,48.250155,-107.928833
Montana,Pondera,48.230312,-112.219928
Montana,Powder River,45.40889,-105.555259
Montana,Powell,46.844225,-112.9311
Montana,Prairie,46.852434,-105.375808
Montana,Ravalli,46.079298,-114.119065
Montana,Richland,47.785513,-104.563387
Montana,Roosevelt,48.282747,-104.99517
Montana,Rosebud,46.161734,-106.701953
Montana,Sanders,47.756469,-115.180225
Montana,Sheridan,48.705523,-104.533913
Montana,Silver Bow,45.895959,-112.660222
Montana,Stillwater,45.663496,-109.391752
Montana,Sweet Grass,45.81306,-109.941312
Montana,Teton,47.819035,-112.281725
Montana,Toole,48.645052,-111.733493
Montana,Treasure,46.209636,-107.280494
Montana,Valley,48.365713,-106.687883
Montana,Wheatland,46.497047,-109.857147
Montana,Wibaux,46.962866,-104.274466
Montana,Yellowstone,45.936987,-108.276656
Nebraska,Adams,40.520632,-98.500044
Nebraska,Antelope,42.183225,-98.058037
Nebraska,Arthur,41.570856,-101.697045
Nebraska,Banner,41.53975,-103.726263
Nebraska,Blaine,41.92523,-99.990771
Nebraska,Boone,41.7054,-98.066794
Nebraska,Box Butte,42.215665,-103.087821
Nebraska,Boyd,42.894448,-98.773022
Nebraska,Brown,42.34939,-99.923176
Nebraska,Buffalo,40.855226,-99.074983
Nebraska,Burt,41.854179,-96.337746
Nebraska,Butler,41.226072,-97.13204
Nebraska,Cass,40.909878,-96.140609
Nebraska,Cedar,42.604511,-97.256824
Nebraska,Chase,40.53039,-101.694192
Nebraska,Cherry,42.566985,-101.072622
Nebraska,Cheyenne,41.214236,-103.011929
Nebraska,Clay,40.523669,-98.05105
Nebraska,Colfax,41.574675,-97.089455
Nebraska,Cuming,41.915865,-96.788517
Nebraska,Custer,41.393893,-99.726866
Nebraska,Dakota,42.390456,-96.562549
Nebraska,Dawes,42.711214,-103.134872
Nebraska,Dawson,40.867378,-99.815154
Nebraska,Deuel,41.112988,-102.332604
Nebraska,Dixon,42.48528,-96.855862
Nebraska,Dodge,41.577008,-96.645853
Nebraska,Douglas,41.297091,-96.154066
Nebraska,Dundy,40.180165,-101.681133
Nebraska,Fillmore,40.52504,-97.596705
Nebraska,Franklin,40.183203,-98.96208
Nebraska,Frontier,40.530947,-100.406683
Nebraska,Furnas,40.191991,-99.909661
Nebraska,Gage,40.255234,-96.683453
Nebraska,Garden,41.659381,-102.328229
Nebraska,Garfield,41.905572,-98.922998
Nebraska,Gosper,40.509838,-99.824078
Nebraska,Grant,41.915867,-101.756875
Nebraska,Greeley,41.5676,-98.530566
Nebraska,Hall,40.866023,-98.498004
Nebraska,Hamilton,40.877145,-98.021943
Nebraska,Harlan,40.178766,-99.403418
Nebraska,Hayes,40.535786,-101.05558
Nebraska,Hitchcock,40.176896,-101.044217
Nebraska,Holt,42.459287,-98.784766
Nebraska,Hooker,41.9187,-101.11681
Nebraska,Howard,41.219403,-98.513303
Nebraska,Jefferson,40.175736,-97.143103
Nebraska,Johnson,40.395457,-96.268562
Nebraska,Kearney,40.506269,-98.948461
Nebraska,Keith,41.194404,-101.644474
Nebraska,Keya Paha,42.87548,-99.718351
Nebraska,Kimball,41.199155,-103.711105
Nebraska,Knox,42.634405,-97.891349
Nebraska,Lancaster,40.783547,-96.688658
Nebraska,Lincoln,41.050322,-100.744481
Nebraska,Logan,41.542156,-100.443665
Nebraska,Loup,41.897714,-99.509764
Nebraska,McPherson,41.596473,-101.060237
Nebraska,Madison,41.909929,-97.606856
Nebraska,Merrick,41.169801,-98.031051
Nebraska,Morrill,41.732205,-102.990599
Nebraska,Nance,41.402386,-97.991408
Nebraska,Nemaha,40.387448,-95.850954
Nebraska,Nuckolls,40.176492,-98.046842
Nebraska,Otoe,40.637992,-96.131027
Nebraska,Pawnee,40.13785,-96.245225
Nebraska,Perkins,40.856065,-101.636443
Nebraska,Phelps,40.516365,-99.406557
Nebraska,Pierce,42.271413,-97.610992
Nebraska,Platte,41.576866,-97.513467
Nebraska,Polk,41.187925,-97.570663
Nebraska,Red Willow,40.16942,-100.468576
Nebraska,Richardson,40.123743,-95.718603
Nebraska,Rock,42.413325,-99.45853
Nebraska,Saline,40.516802,-97.131755
Nebraska,Sarpy,41.115064,-96.109125
Nebraska,Saunders,41.223152,-96.640923
Nebraska,Scotts Bluff,41.851589,-103.70586
Nebraska,Seward,40.871944,-97.140383
Nebraska,Sheridan,42.507074,-102.389698
Nebraska,Sherman,41.218743,-98.972849
Nebraska,Sioux,42.483806,-103.742605
Nebraska,Stanton,41.904793,-97.174724
Nebraska,Thayer,40.173845,-97.596263
Nebraska,Thomas,41.84862,-100.506911
Nebraska,Thurston,42.154061,-96.533943
Nebraska,Valley,41.564094,-98.983484
Nebraska,Washington,41.533979,-96.224574
Nebraska,Wayne,42.210746,-97.126243
Nebraska,Webster,40.180646,-98.49859
Nebraska,Wheeler,41.937859,-98.522289
Nebraska,York,40.873056,-97.596742
Nevada,Churchill,39.525701,-118.270419
Nevada,Clark,36.214236,-115.013819
Nevada,Douglas,38.905129,-119.609019
Nevada,Elko,41.141133,-115.351424
Nevada,Esmeralda,37.778966,-117.632382
Nevada,Eureka,39.977788,-116.272208
Nevada,Humboldt,41.407914,-118.127592
Nevada,Lander,39.900211,-117.04724
Nevada,Lincoln,37.634605,-114.863037
Nevada,Lyon,39.022214,-119.197417
Nevada,Mineral,38.516647,-118.416279
Nevada,Nye,37.966379,-116.459047
Nevada,Pershing,40.439639,-118.409477
Nevada,Storey,39.438385,-119.524646
Nevada,Washoe,40.703311,-119.710315
Nevada,White Pine,39.417804,-114.900945
Nevada,Carson City [9],39.153447,-119.743442
New Hampshire,Belknap,43.519109,-71.425366
New Hampshire,Carroll,43.867567,-71.201665
New Hampshire,Cheshire,42.925455,-72.248217
New Hampshire,Coos,44.652419,-71.289383
New Hampshire,Grafton,43.926488,-71.842264
New Hampshire,Hillsborough,42.911643,-71.723101
New Hampshire,Merrimack,43.299485,-71.68013
New Hampshire,Rockingham,42.98936,-71.099437
New Hampshire,Strafford,43.293177,-71.035927
New Hampshire,Sullivan,43.361188,-72.222084
New Jersey,Atlantic,39.469354,-74.633758
New Jersey,Bergen,40.95909,-74.074522
New Jersey,Burlington,39.875786,-74.663006
New Jersey,Camden,39.802352,-74.961251
New Jersey,Cape May,39.086143,-74.847716
New Jersey,Cumberland,39.328387,-75.121644
New Jersey,Essex,40.787217,-74.246136
New Jersey,Gloucester,39.721019,-75.143708
New Jersey,Hudson,40.731384,-74.078627
New Jersey,Hunterdon,40.565283,-74.91197
New Jersey,Mercer,40.282503,-74.703724
New Jersey,Middlesex,40.439593,-74.407585
New Jersey,Monmouth,40.287056,-74.152446
New Jersey,Morris,40.858581,-74.547427
New Jersey,Ocean,39.86585,-74.263027
New Jersey,Passaic,41.033763,-74.300308
New Jersey,Salem,39.573828,-75.357356
New Jersey,Somerset,40.565522,-74.61993
New Jersey,Sussex,41.137424,-74.691855
New Jersey,Union,40.659871,-74.308696
New Jersey,Warren,40.853524,-75.009542
New Mexico,Bernalillo,35.054002,-106.669065
New Mexico,Catron,33.901814,-108.392097
New Mexico,Chaves,33.361605,-104.469837
New Mexico,Cibola,34.93205,-108.000255
New Mexico,Colfax,36.612963,-104.640126
New Mexico,Curry,34.572984,-103.346055
New Mexico,De Baca,34.351429,-104.401527
New Mexico,Dona Ana,32.350912,-106.832182
New Mexico,Eddy,32.457858,-104.306471
New Mexico,Grant,32.732087,-108.381504
New Mexico,Guadalupe,34.869782,-104.784968
New Mexico,Harding,35.863152,-103.829931
New Mexico,Hidalgo,31.899658,-108.745729
New Mexico,Lea,32.795687,-103.413271
New Mexico,Lincoln,33.740941,-105.449083
New Mexico,Los Alamos,35.870047,-106.307968
New Mexico,Luna,32.184482,-107.746639
New Mexico,McKinley,35.573732,-108.255307
New Mexico,Mora,35.982841,-104.921898
New Mexico,Otero,32.588776,-105.781079
New Mexico,Quay,35.107018,-103.548071
New Mexico,Rio Arriba,36.509669,-106.693983
New Mexico,Roosevelt,34.021457,-103.482725
New Mexico,Sandoval,35.685073,-106.882618
New Mexico,San Juan,36.511625,-108.324578
New Mexico,San Miguel,35.476876,-104.803515
New Mexico,Santa Fe,35.513722,-105.966441
New Mexico,Sierra,33.119479,-107.188161
New Mexico,Socorro,33.991614,-106.939003
New Mexico,Taos,36.576529,-105.637987
New Mexico,Torrance,34.634644,-105.846836
New Mexico,Union,36.488085,-103.475723
New Mexico,Valencia,34.71684,-106.806582
New York,Albany,42.588271,-73.974014
New York,Allegany,42.247894,-78.026176
New York,Bronx [10],40.848711,-73.852939
New York,Broome,42.161977,-75.830291
New York,Cattaraugus,42.244853,-78.681006
New York,Cayuga,43.008546,-76.574587
New York,Chautauqua,42.304216,-79.407595
New York,Chemung,42.155281,-76.747179
New York,Chenango,42.489732,-75.604905
New York,Clinton,44.75271,-73.705648
New York,Columbia,42.247729,-73.626805
New York,Cortland,42.593824,-76.076265
New York,Delaware,42.193987,-74.966728
New York,Dutchess,41.755009,-73.739951
New York,Erie,42.752759,-78.778192
New York,Essex,44.108971,-73.777573
New York,Franklin,44.594374,-74.31067
New York,Fulton,43.115609,-74.423678
New York,Genesee,43.00091,-78.192778
New York,Greene,42.286951,-74.149495
New York,Hamilton,43.657879,-74.502456
New York,Herkimer,43.461635,-74.894694
New York,Jefferson,43.995371,-76.053522
New York,Kings [10],40.635133,-73.950777
New York,Lewis,43.786397,-75.442617
New York,Livingston,42.727485,-77.76978
New York,Madison,42.910026,-75.663575
New York,Monroe,43.464475,-77.664656
New York,Montgomery,42.900891,-74.435358
New York,Nassau,40.729687,-73.589384
New York,New York [10],40.776557,-73.970174
New York,Niagara,43.456731,-78.792143
New York,Oneida,43.242727,-75.434282
New York,Onondaga,43.00653,-76.196117
New York,Ontario,42.856695,-77.303277
New York,Orange,41.40241,-74.306252
New York,Orleans,43.502287,-78.229726
New York,Oswego,43.461443,-76.209258
New York,Otsego,42.629776,-75.028841
New York,Putnam,41.427904,-73.743882
New York,Queens [10],40.658557,-73.837929
New York,Rensselaer,42.710421,-73.513845
New York,Richmond [10],40.563855,-74.137063
New York,Rockland,41.154785,-74.024772
New York,St. Lawrence,44.488113,-75.074311
New York,Saratoga,43.106135,-73.855387
New York,Schenectady,42.817542,-74.043583
New York,Schoharie,42.591294,-74.438172
New York,Schuyler,42.419776,-76.938604
New York,Seneca,42.782294,-76.827088
New York,Steuben,42.266725,-77.385525
New York,Suffolk,40.943554,-72.692218
New York,Sullivan,41.720176,-74.76468
New York,Tioga,42.178057,-76.29745
New York,Tompkins,42.453281,-76.473712
New York,Ulster,41.947232,-74.265447
New York,Warren,43.555105,-73.838139
New York,Washington,43.312377,-73.439428
New York,Wayne,43.458758,-77.063164
New York,Westchester,41.15277,-73.745912
New York,Wyoming,42.701363,-78.228567
New York,Yates,42.638237,-77.104324
North Carolina,Alamance,36.041974,-79.399935
North Carolina,Alexander,35.920951,-81.177467
North Carolina,Alleghany,36.489356,-81.132299
North Carolina,Anson,34.974996,-80.109959
North Carolina,Ashe,36.436305,-81.49877
North Carolina,Avery,36.072894,-81.920363
North Carolina,Beaufort,35.482313,-76.842014
North Carolina,Bertie,36.06133,-76.962367
North Carolina,Bladen,34.591949,-78.539513
North Carolina,Brunswick,34.038708,-78.227688
North Carolina,Buncombe,35.609371,-82.530426
North Carolina,Burke,35.746182,-81.70618
North Carolina,Cabarrus,35.387845,-80.552868
North Carolina,Caldwell,35.957857,-81.530076
North Carolina,Camden,36.342344,-76.162488
North Carolina,Carteret,34.858313,-76.526967
North Carolina,Caswell,36.393097,-79.332546
North Carolina,Catawba,35.663182,-81.214151
North Carolina,Chatham,35.704994,-79.251454
North Carolina,Cherokee,35.136233,-84.061308
North Carolina,Chowan,36.127288,-76.60207
North Carolina,Clay,35.052997,-83.752264
North Carolina,Cleveland,35.33463,-81.557115
North Carolina,Columbus,34.260471,-78.636378
North Carolina,Craven,35.118179,-77.082541
North Carolina,Cumberland,35.050192,-78.828719
North Carolina,Currituck,36.372174,-75.941224
North Carolina,Dare,35.606269,-75.767536
North Carolina,Davidson,35.795123,-80.206525
North Carolina,Davie,35.929356,-80.542542
North Carolina,Duplin,34.934403,-77.933543
North Carolina,Durham,36.036589,-78.877919
North Carolina,Edgecombe,35.917055,-77.602655
North Carolina,Forsyth,36.131667,-80.257289
North Carolina,Franklin,36.088241,-78.28309
North Carolina,Gaston,35.293344,-81.177256
North Carolina,Gates,36.442135,-76.702355
North Carolina,Graham,35.348111,-83.830909
North Carolina,Granville,36.299884,-78.657634
North Carolina,Greene,35.481933,-77.681667
North Carolina,Guilford,36.079065,-79.788665
North Carolina,Halifax,36.251438,-77.644842
North Carolina,Harnett,35.368635,-78.87161
North Carolina,Haywood,35.557097,-82.972807
North Carolina,Henderson,35.336424,-82.479634
North Carolina,Hertford,36.363517,-76.981616
North Carolina,Hoke,35.017233,-79.241964
North Carolina,Hyde,35.408157,-76.153687
North Carolina,Iredell,35.806356,-80.874545
North Carolina,Jackson,35.286463,-83.130641
North Carolina,Johnston,35.513405,-78.367267
North Carolina,Jones,35.03216,-77.356443
North Carolina,Lee,35.476075,-79.17222
North Carolina,Lenoir,35.238062,-77.639023
North Carolina,Lincoln,35.487825,-81.225176
North Carolina,McDowell,35.682232,-82.048029
North Carolina,Macon,35.152959,-83.421901
North Carolina,Madison,35.86408,-82.712731
North Carolina,Martin,35.841059,-77.112867
North Carolina,Mecklenburg,35.246862,-80.833832
North Carolina,Mitchell,36.013102,-82.163554
North Carolina,Montgomery,35.338071,-79.904196
North Carolina,Moore,35.310163,-79.480664
North Carolina,Nash,35.965945,-77.987555
North Carolina,New Hanover,34.177466,-77.871378
North Carolina,Northampton,36.421774,-77.398352
North Carolina,Onslow,34.76346,-77.503297
North Carolina,Orange,36.062499,-79.119355
North Carolina,Pamlico,35.147462,-76.665069
North Carolina,Pasquotank,36.265276,-76.260355
North Carolina,Pender,34.512581,-77.888029
North Carolina,Perquimans,36.178261,-76.404269
North Carolina,Person,36.386387,-78.965471
North Carolina,Pitt,35.591065,-77.372404
North Carolina,Polk,35.278928,-82.167667
North Carolina,Randolph,35.709915,-79.806215
North Carolina,Richmond,35.001957,-79.747809
North Carolina,Robeson,34.63921,-79.100881
North Carolina,Rockingham,36.380927,-79.782889
North Carolina,Rowan,35.639218,-80.525344
North Carolina,Rutherford,35.402747,-81.919583
North Carolina,Sampson,34.990575,-78.371382
North Carolina,Scotland,34.840023,-79.477337
North Carolina,Stanly,35.310523,-80.254355
North Carolina,Stokes,36.404195,-80.239271
North Carolina,Surry,36.415416,-80.686463
North Carolina,Swain,35.568849,-83.465614
North Carolina,Transylvania,35.210095,-82.816696
North Carolina,Tyrrell,35.87042,-76.165345
North Carolina,Union,34.991501,-80.530131
North Carolina,Vance,36.365481,-78.405434
North Carolina,Wake,35.789846,-78.650624
North Carolina,Warren,36.397979,-78.099924
North Carolina,Washington,35.844589,-76.572334
North Carolina,Watauga,36.235371,-81.709919
North Carolina,Wayne,35.362741,-78.004826
North Carolina,Wilkes,36.209303,-81.165354
North Carolina,Wilson,35.704125,-77.918982
North Carolina,Yadkin,36.158765,-80.665164
North Carolina,Yancey,35.889504,-82.30398
North Dakota,Adams,46.096815,-102.533198
North Dakota,Barnes,46.94255,-98.070195
North Dakota,Benson,48.071738,-99.361987
North Dakota,Billings,47.009283,-103.364924
North Dakota,Bottineau,48.794412,-100.831257
North Dakota,Bowman,46.107807,-103.506586
North Dakota,Burke,48.786453,-102.520087
North Dakota,Burleigh,46.971843,-100.462001
North Dakota,Cass,46.927003,-97.252375
North Dakota,Cavalier,48.768439,-98.46379
North Dakota,Dickey,46.107756,-98.496518
North Dakota,Divide,48.818142,-103.497653
North Dakota,Dunn,47.35461,-102.612365
North Dakota,Eddy,47.723436,-98.900475
North Dakota,Emmons,46.284255,-100.237842
North Dakota,Foster,47.464327,-98.872817
North Dakota,Golden Valley,46.938924,-103.844612
North Dakota,Grand Forks,47.926003,-97.450851
North Dakota,Grant,46.357827,-101.639049
North Dakota,Griggs,47.463463,-98.232444
North Dakota,Hettinger,46.434939,-102.458385
North Dakota,Kidder,46.935385,-99.742727
North Dakota,LaMoure,46.464195,-98.526057
North Dakota,Logan,46.469278,-99.504585
North Dakota,McHenry,48.233842,-100.633267
North Dakota,McIntosh,46.117034,-99.443041
North Dakota,McKenzie,47.742475,-103.403215
North Dakota,McLean,47.653055,-101.421794
North Dakota,Mercer,47.303279,-101.820765
North Dakota,Morton,46.713789,-101.279743
North Dakota,Mountrail,48.210291,-102.364756
North Dakota,Nelson,47.918667,-98.204428
North Dakota,Oliver,47.118079,-101.33142
North Dakota,Pembina,48.766896,-97.545405
North Dakota,Pierce,48.238883,-99.966497
North Dakota,Ramsey,48.265551,-98.737329
North Dakota,Ransom,46.449276,-97.647554
North Dakota,Renville,48.712782,-101.658152
North Dakota,Richland,46.265219,-96.93796
North Dakota,Rolette,48.768272,-99.840463
North Dakota,Sargent,46.108206,-97.63003
North Dakota,Sheridan,47.581373,-100.341499
North Dakota,Sioux,46.109282,-101.047525
North Dakota,Slope,46.445834,-103.462462
North Dakota,Stark,46.817031,-102.662026
North Dakota,Steele,47.458288,-97.718895
North Dakota,Stutsman,46.971103,-98.957592
North Dakota,Towner,48.682183,-99.248158
North Dakota,Traill,47.446215,-97.164754
North Dakota,Walsh,48.376979,-97.72223
North Dakota,Ward,48.216686,-101.540537
North Dakota,Wells,47.580851,-99.671502
North Dakota,Williams,48.345867,-103.4874
Ohio,Adams,38.841681,-83.474173
Ohio,Allen,40.771528,-84.106546
Ohio,Ashland,40.843274,-82.270121
Ohio,Ashtabula,41.906644,-80.745641
Ohio,Athens,39.333848,-82.046008
Ohio,Auglaize,40.561309,-84.224018
Ohio,Belmont,40.017682,-80.967727
Ohio,Brown,38.931377,-83.866772
Ohio,Butler,39.439915,-84.565397
Ohio,Carroll,40.579884,-81.090787
Ohio,Champaign,40.132759,-83.767543
Ohio,Clark,39.917032,-83.783676
Ohio,Clermont,39.052084,-84.149614
Ohio,Clinton,39.414041,-83.814542
Ohio,Columbiana,40.768462,-80.777231
Ohio,Coshocton,40.29672,-81.930112
Ohio,Crawford,40.848508,-82.924771
Ohio,Cuyahoga,41.760392,-81.724217
Ohio,Darke,40.132176,-84.620438
Ohio,Defiance,41.321679,-84.486433
Ohio,Delaware,40.278941,-83.007462
Ohio,Erie,41.554006,-82.525897
Ohio,Fairfield,39.752935,-82.628276
Ohio,Fayette,39.553845,-83.459327
Ohio,Franklin,39.969447,-83.008258
Ohio,Fulton,41.597264,-84.124267
Ohio,Gallia,38.817046,-82.301746
Ohio,Geauga,41.499322,-81.173505
Ohio,Greene,39.687479,-83.894894
Ohio,Guernsey,40.056665,-81.497875
Ohio,Hamilton,39.196927,-84.544187
Ohio,Hancock,41.000471,-83.666034
Ohio,Hardin,40.660415,-83.664077
Ohio,Harrison,40.292318,-81.091565
Ohio,Henry,41.335072,-84.065882
Ohio,Highland,39.184488,-83.603668
Ohio,Hocking,39.490343,-82.483445
Ohio,Holmes,40.565309,-81.929869
Ohio,Huron,41.14508,-82.594641
Ohio,Jackson,39.013477,-82.614142
Ohio,Jefferson,40.399188,-80.76141
Ohio,Knox,40.40362,-82.422393
Ohio,Lake,41.924116,-81.392643
Ohio,Lawrence,38.603866,-82.517186
Ohio,Licking,40.093609,-82.481251
Ohio,Logan,40.387553,-83.766343
Ohio,Lorain,41.438805,-82.179722
Ohio,Lucas,41.682321,-83.468867
Ohio,Madison,39.896607,-83.400885
Ohio,Mahoning,41.01088,-80.770396
Ohio,Marion,40.588208,-83.172927
Ohio,Medina,41.116051,-81.899566
Ohio,Meigs,39.089807,-82.028397
Ohio,Mercer,40.535333,-84.632059
Ohio,Miami,40.053326,-84.228414
Ohio,Monroe,39.725969,-81.090658
Ohio,Montgomery,39.755218,-84.290546
Ohio,Morgan,39.624946,-81.861699
Ohio,Morrow,40.525266,-82.797729
Ohio,Muskingum,39.966046,-81.943506
Ohio,Noble,39.767232,-81.452604
Ohio,Ottawa,41.544467,-83.009253
Ohio,Paulding,41.119141,-84.576967
Ohio,Perry,39.743187,-82.237953
Ohio,Pickaway,39.648947,-83.052827
Ohio,Pike,39.071365,-83.052921
Ohio,Portage,41.16864,-81.196932
Ohio,Preble,39.737906,-84.645358
Ohio,Putnam,41.024533,-84.129879
Ohio,Richland,40.774167,-82.542715
Ohio,Ross,39.323763,-83.059585
Ohio,Sandusky,41.355291,-83.142735
Ohio,Scioto,38.815019,-82.999028
Ohio,Seneca,41.120008,-83.127436
Ohio,Shelby,40.33668,-84.204143
Ohio,Stark,40.814131,-81.365667
Ohio,Summit,41.121851,-81.534936
Ohio,Trumbull,41.308936,-80.767656
Ohio,Tuscarawas,40.447441,-81.471157
Ohio,Union,40.295901,-83.367042
Ohio,Van Wert,40.85552,-84.585775
Ohio,Vinton,39.252014,-82.485961
Ohio,Warren,39.425652,-84.169906
Ohio,Washington,39.450684,-81.490653
Ohio,Wayne,40.829661,-81.887194
Ohio,Williams,41.564958,-84.584323
Ohio,Wood,41.360183,-83.622682
Ohio,Wyandot,40.840122,-83.313172
Oklahoma,Adair,35.8975,-94.651671
Oklahoma,Alfalfa,36.729703,-98.323445
Oklahoma,Atoka,34.374813,-96.034705
Oklahoma,Beaver,36.748334,-100.483056
Oklahoma,Beckham,35.273945,-99.671638
Oklahoma,Blaine,35.877782,-98.428934
Oklahoma,Bryan,33.964004,-96.264137
Oklahoma,Caddo,35.16792,-98.381045
Oklahoma,Canadian,35.543416,-97.979836
Oklahoma,Carter,34.251848,-97.287927
Oklahoma,Cherokee,35.904367,-94.996796
Oklahoma,Choctaw,34.027645,-95.554208
Oklahoma,Cimarron,36.755276,-102.508735
Oklahoma,Cleveland,35.203117,-97.328332
Oklahoma,Coal,34.582861,-96.288039
Oklahoma,Comanche,34.662628,-98.476597
Oklahoma,Cotton,34.290676,-98.373438
Oklahoma,Craig,36.76389,-95.201553
Oklahoma,Creek,35.907732,-96.379793
Oklahoma,Custer,35.645601,-98.997386
Oklahoma,Delaware,36.393369,-94.808206
Oklahoma,Dewey,35.978433,-99.014094
Oklahoma,Ellis,36.224258,-99.750139
Oklahoma,Garfield,36.378273,-97.787729
Oklahoma,Garvin,34.70935,-97.312723
Oklahoma,Grady,35.021058,-97.88689
Oklahoma,Grant,36.788254,-97.788151
Oklahoma,Greer,34.935263,-99.552968
Oklahoma,Harmon,34.745971,-99.844194
Oklahoma,Harper,36.800456,-99.662842
Oklahoma,Haskell,35.232294,-95.109578
Oklahoma,Hughes,35.052934,-96.251183
Oklahoma,Jackson,34.593949,-99.41221
Oklahoma,Jefferson,34.105092,-97.838814
Oklahoma,Johnston,34.313455,-96.654255
Oklahoma,Kay,36.814842,-97.143755
Oklahoma,Kingfisher,35.949431,-97.934568
Oklahoma,Kiowa,34.921489,-98.981617
Oklahoma,Latimer,34.875137,-95.272263
Oklahoma,Le Flore,34.899642,-94.703491
Oklahoma,Lincoln,35.703118,-96.881392
Oklahoma,Logan,35.914151,-97.450764
Oklahoma,Love,33.957775,-97.245124
Oklahoma,McClain,35.016414,-97.449811
Oklahoma,McCurtain,34.117073,-94.766086
Oklahoma,McIntosh,35.369092,-95.671764
Oklahoma,Major,36.313119,-98.542015
Oklahoma,Marshall,34.027007,-96.770533
Oklahoma,Mayes,36.303804,-95.235638
Oklahoma,Murray,34.485766,-97.071557
Oklahoma,Muskogee,35.617551,-95.383911
Oklahoma,Noble,36.384901,-97.236335
Oklahoma,Nowata,36.789615,-95.613312
Oklahoma,Okfuskee,35.466804,-96.327762
Oklahoma,Oklahoma,35.554611,-97.409401
Oklahoma,Okmulgee,35.646879,-95.96458
Oklahoma,Osage,36.62468,-96.408385
Oklahoma,Ottawa,36.835764,-94.802681
Oklahoma,Pawnee,36.313704,-96.696669
Oklahoma,Payne,36.079225,-96.975255
Oklahoma,Pittsburg,34.92554,-95.74813
Oklahoma,Pontotoc,34.721071,-96.692738
Oklahoma,Pottawatomie,35.211393,-96.957007
Oklahoma,Pushmataha,34.377896,-95.408085
Oklahoma,Roger Mills,35.708554,-99.741572
Oklahoma,Rogers,36.378082,-95.601337
Oklahoma,Seminole,35.158366,-96.602858
Oklahoma,Sequoyah,35.502435,-94.750757
Oklahoma,Stephens,34.481361,-97.855607
Oklahoma,Texas,36.741964,-101.488434
Oklahoma,Tillman,34.371085,-98.931701
Oklahoma,Tulsa,36.120121,-95.941731
Oklahoma,Wagoner,35.963479,-95.5141
Oklahoma,Washington,36.70438,-95.906155
Oklahoma,Washita,35.290177,-98.991962
Oklahoma,Woods,36.765141,-98.868967
Oklahoma,Woodward,36.425619,-99.273661
Oregon,Baker,44.703427,-117.691933
Oregon,Benton,44.490623,-123.426317
Oregon,Clackamas,45.160493,-122.195127
Oregon,Clatsop,46.024509,-123.705014
Oregon,Columbia,45.941932,-123.081079
Oregon,Coos,43.184193,-124.092557
Oregon,Crook,44.163054,-120.371585
Oregon,Curry,42.466671,-124.211407
Oregon,Deschutes,43.915118,-121.225575
Oregon,Douglas,43.285904,-123.15438
Oregon,Gilliam,45.381666,-120.211851
Oregon,Grant,44.496326,-119.014057
Oregon,Harney,43.064355,-118.985949
Oregon,Hood River,45.511775,-121.655976
Oregon,Jackson,42.411782,-122.675797
Oregon,Jefferson,44.64379,-121.183021
Oregon,Josephine,42.385382,-123.597245
Oregon,Klamath,42.683761,-121.646168
Oregon,Lake,42.788401,-120.38979
Oregon,Lane,43.928276,-122.897678
Oregon,Lincoln,44.641076,-123.911183
Oregon,Linn,44.494824,-122.543756
Oregon,Malheur,43.1877,-117.603976
Oregon,Marion,44.900898,-122.57626
Oregon,Morrow,45.425496,-119.602311
Oregon,Multnomah,45.547693,-122.417173
Oregon,Polk,44.904395,-123.397329
Oregon,Sherman,45.399216,-120.678512
Oregon,Tillamook,45.455743,-123.759327
Oregon,Umatilla,45.5912,-118.73388
Oregon,Union,45.304047,-117.999136
Oregon,Wallowa,45.593753,-117.18558
Oregon,Wasco,45.164536,-121.165069
Oregon,Washington,45.553542,-123.097615
Oregon,Wheeler,44.736411,-120.026875
Oregon,Yamhill,45.248138,-123.316117
Pennsylvania,Adams,39.869471,-77.21773
Pennsylvania,Allegheny,40.46892,-79.98092
Pennsylvania,Armstrong,40.812379,-79.464128
Pennsylvania,Beaver,40.68414,-80.350721
Pennsylvania,Bedford,39.997115,-78.48998
Pennsylvania,Berks,40.413957,-75.92686
Pennsylvania,Blair,40.497926,-78.31064
Pennsylvania,Bradford,41.791495,-76.502124
Pennsylvania,Bucks,40.336887,-75.10706
Pennsylvania,Butler,40.913834,-79.91896
Pennsylvania,Cambria,40.494127,-78.715284
Pennsylvania,Cameron,41.438289,-78.198315
Pennsylvania,Carbon,40.917833,-75.709428
Pennsylvania,Centre,40.90916,-77.84783
Pennsylvania,Chester,39.973965,-75.749732
Pennsylvania,Clarion,41.198239,-79.420404
Pennsylvania,Clearfield,41.000249,-78.473749
Pennsylvania,Clinton,41.245301,-77.649141
Pennsylvania,Columbia,41.045517,-76.40426
Pennsylvania,Crawford,41.68684,-80.107811
Pennsylvania,Cumberland,40.164782,-77.26344
Pennsylvania,Dauphin,40.412565,-76.792634
Pennsylvania,Delaware,39.91667,-75.398786
Pennsylvania,Elk,41.427334,-78.653938
Pennsylvania,Erie,42.117952,-80.096386
Pennsylvania,Fayette,39.914115,-79.644586
Pennsylvania,Forest,41.513304,-79.249705
Pennsylvania,Franklin,39.926686,-77.724485
Pennsylvania,Fulton,39.910751,-78.122617
Pennsylvania,Greene,39.848983,-80.225694
Pennsylvania,Huntingdon,40.422321,-77.968584
Pennsylvania,Indiana,40.651432,-79.087545
Pennsylvania,Jefferson,41.130287,-78.999044
Pennsylvania,Juniata,40.530673,-77.400438
Pennsylvania,Lackawanna,41.44025,-75.609587
Pennsylvania,Lancaster,40.041992,-76.250198
Pennsylvania,Lawrence,40.992735,-80.334446
Pennsylvania,Lebanon,40.367344,-76.458009
Pennsylvania,Lehigh,40.614241,-75.590627
Pennsylvania,Luzerne,41.172787,-75.976035
Pennsylvania,Lycoming,41.343624,-77.055253
Pennsylvania,McKean,41.81459,-78.572463
Pennsylvania,Mercer,41.300014,-80.252786
Pennsylvania,Mifflin,40.61189,-77.620661
Pennsylvania,Monroe,41.056233,-75.329037
Pennsylvania,Montgomery,40.209999,-75.370201
Pennsylvania,Montour,41.029261,-76.665259
Pennsylvania,Northampton,40.752791,-75.307447
Pennsylvania,Northumberland,40.851524,-76.709877
Pennsylvania,Perry,40.39778,-77.266328
Pennsylvania,Philadelphia,40.009376,-75.133346
Pennsylvania,Pike,41.325949,-75.031514
Pennsylvania,Potter,41.748222,-77.894735
Pennsylvania,Schuylkill,40.70369,-76.2178
Pennsylvania,Snyder,40.755348,-77.072954
Pennsylvania,Somerset,39.981297,-79.028486
Pennsylvania,Sullivan,41.43979,-76.511525
Pennsylvania,Susquehanna,41.819665,-75.800969
Pennsylvania,Tioga,41.766859,-77.257288
Pennsylvania,Union,40.962179,-77.055475
Pennsylvania,Venango,41.40198,-79.754418
Pennsylvania,Warren,41.843669,-79.313173
Pennsylvania,Washington,40.200005,-80.252132
Pennsylvania,Wayne,41.646589,-75.292485
Pennsylvania,Westmoreland,40.311068,-79.466688
Pennsylvania,Wyoming,41.525137,-76.00878
Pennsylvania,York,39.921839,-76.728446
Rhode Island,Bristol [6],41.705271,-71.285053
Rhode Island,Kent [6],41.67775,-71.576314
Rhode Island,Newport [6],41.502732,-71.284063
Rhode Island,Providence [6],41.870488,-71.578242
Rhode Island,Washington [6],41.401162,-71.617612
South Carolina,Abbeville,34.213809,-82.46046
South Carolina,Aiken,33.549317,-81.63387
South Carolina,Allendale,32.979784,-81.363421
South Carolina,Anderson,34.519549,-82.638086
South Carolina,Bamberg,33.203021,-81.053161
South Carolina,Barnwell,33.26068,-81.433753
South Carolina,Beaufort,32.358147,-80.68932
South Carolina,Berkeley,33.2077,-79.953655
South Carolina,Calhoun,33.67478,-80.780347
South Carolina,Charleston,32.800458,-79.94248
South Carolina,Cherokee,35.049796,-81.607647
South Carolina,Chester,34.689345,-81.161249
South Carolina,Chesterfield,34.637018,-80.159227
South Carolina,Clarendon,33.664682,-80.217889
South Carolina,Colleton,32.83498,-80.655345
South Carolina,Darlington,34.332185,-79.962116
South Carolina,Dillon,34.390172,-79.374964
South Carolina,Dorchester,33.082186,-80.404697
South Carolina,Edgefield,33.776498,-81.968245
South Carolina,Fairfield,34.395669,-81.127001
South Carolina,Florence,34.028535,-79.710233
South Carolina,Georgetown,33.41753,-79.300812
South Carolina,Greenville,34.892645,-82.372077
South Carolina,Greenwood,34.155796,-82.127876
South Carolina,Hampton,32.778323,-81.143362
South Carolina,Horry,33.909269,-78.976675
South Carolina,Jasper,32.43059,-81.021627
South Carolina,Kershaw,34.338356,-80.590885
South Carolina,Lancaster,34.686818,-80.703689
South Carolina,Laurens,34.483477,-82.005657
South Carolina,Lee,34.15864,-80.251209
South Carolina,Lexington,33.892554,-81.272853
South Carolina,McCormick,33.897605,-82.316192
South Carolina,Marion,34.080701,-79.362131
South Carolina,Marlboro,34.601805,-79.677942
South Carolina,Newberry,34.28973,-81.600053
South Carolina,Oconee,34.748759,-83.061522
South Carolina,Orangeburg,33.436135,-80.802913
South Carolina,Pickens,34.887362,-82.725368
South Carolina,Richland,34.029783,-80.896566
South Carolina,Saluda,34.005278,-81.727903
South Carolina,Spartanburg,34.933239,-81.991053
South Carolina,Sumter,33.916046,-80.382472
South Carolina,Union,34.690514,-81.615831
South Carolina,Williamsburg,33.626463,-79.716475
South Carolina,York,34.97019,-81.183189
South Dakota,Aurora,43.724719,-98.577587
South Dakota,Beadle,44.418265,-98.279422
South Dakota,Bennett,43.184826,-101.676426
South Dakota,Bon Homme,42.986031,-97.885613
South Dakota,Brookings,44.376675,-96.797797
South Dakota,Brown,45.589254,-98.352175
South Dakota,Brule,43.72988,-99.092941
South Dakota,Buffalo,44.044306,-99.203998
South Dakota,Butte,44.896435,-103.501762
South Dakota,Campbell,45.782241,-100.027951
South Dakota,Charles Mix,43.206185,-98.595143
South Dakota,Clark,44.855211,-97.724912
South Dakota,Clay,42.912997,-96.979795
South Dakota,Codington,44.966324,-97.198843
South Dakota,Corson,45.69834,-101.176017
South Dakota,Custer,43.684943,-103.46225
South Dakota,Davison,43.680439,-98.155868
South Dakota,Day,45.362283,-97.593734
South Dakota,Deuel,44.75629,-96.690239
South Dakota,Dewey,45.150005,-100.852218
South Dakota,Douglas,43.391506,-98.358433
South Dakota,Edmunds,45.41168,-99.205362
South Dakota,Fall River,43.221504,-103.512102
South Dakota,Faulk,45.065476,-99.153564
South Dakota,Grant,45.172637,-96.772261
South Dakota,Gregory,43.179094,-99.202158
South Dakota,Haakon,44.284312,-101.59179
South Dakota,Hamlin,44.680619,-97.178598
South Dakota,Hand,44.546713,-99.004575
South Dakota,Hanson,43.680612,-97.796845
South Dakota,Harding,45.596612,-103.473867
South Dakota,Hughes,44.392258,-99.985846
South Dakota,Hutchinson,43.33671,-97.749383
South Dakota,Hyde,44.537301,-99.492148
South Dakota,Jackson,43.677294,-101.626455
South Dakota,Jerauld,44.063416,-98.623188
South Dakota,Jones,43.95199,-100.686139
South Dakota,Kingsbury,44.362969,-97.499313
South Dakota,Lake,44.02845,-97.123223
South Dakota,Lawrence,44.353669,-103.796528
South Dakota,Lincoln,43.27942,-96.722286
South Dakota,Lyman,43.894812,-99.841925
South Dakota,McCook,43.678924,-97.362036
South Dakota,McPherson,45.784249,-99.211421
South Dakota,Marshall,45.737054,-97.580884
South Dakota,Meade,44.606792,-102.715864
South Dakota,Mellette,43.58493,-100.760598
South Dakota,Miner,44.017327,-97.60979
South Dakota,Minnehaha,43.667472,-96.795726
South Dakota,Moody,44.012429,-96.676054
South Dakota,Oglala Lakota [11],43.341937,-102.55948
South Dakota,Pennington,44.002349,-102.823802
South Dakota,Perkins,45.483387,-102.467995
South Dakota,Potter,45.064276,-99.949631
South Dakota,Roberts,45.623397,-96.947551
South Dakota,Sanborn,44.021032,-98.092105
South Dakota,Spink,44.931034,-98.339644
South Dakota,Stanley,44.415547,-100.749163
South Dakota,Sully,44.722325,-100.131399
South Dakota,Todd [12],43.208172,-100.717204
South Dakota,Tripp,43.349729,-99.876219
South Dakota,Turner,43.30867,-97.150185
South Dakota,Union,42.831106,-96.650829
South Dakota,Walworth,45.427605,-100.027856
South Dakota,Yankton,43.006607,-97.388339
South Dakota,Ziebach,44.981666,-101.669225
Tennessee,Anderson,36.116731,-84.195418
Tennessee,Bedford,35.51366,-86.458294
Tennessee,Benton,36.069253,-88.071212
Tennessee,Bledsoe,35.593668,-85.205979
Tennessee,Blount,35.688185,-83.922973
Tennessee,Bradley,35.153914,-84.859414
Tennessee,Campbell,36.401592,-84.15925
Tennessee,Cannon,35.808394,-86.062404
Tennessee,Carroll,35.967896,-88.451659
Tennessee,Carter,36.284744,-82.126593
Tennessee,Cheatham,36.25518,-87.100816
Tennessee,Chester,35.416639,-88.605505
Tennessee,Claiborne,36.501557,-83.660724
Tennessee,Clay,36.545765,-85.545718
Tennessee,Cocke,35.916198,-83.119223
Tennessee,Coffee,35.488759,-86.078219
Tennessee,Crockett,35.811312,-89.135349
Tennessee,Cumberland,35.952398,-84.994761
Tennessee,Davidson,36.169129,-86.78479
Tennessee,Decatur,35.603422,-88.107384
Tennessee,DeKalb,35.98222,-85.833596
Tennessee,Dickson,36.145533,-87.364155
Tennessee,Dyer,36.054196,-89.398306
Tennessee,Fayette,35.196993,-89.413803
Tennessee,Fentress,36.376079,-84.932703
Tennessee,Franklin,35.155926,-86.099203
Tennessee,Gibson,35.991694,-88.933776
Tennessee,Giles,35.202723,-87.035319
Tennessee,Grainger,36.277463,-83.509493
Tennessee,Greene,36.178998,-82.847746
Tennessee,Grundy,35.387273,-85.722188
Tennessee,Hamblen,36.218397,-83.266071
Tennessee,Hamilton,35.159186,-85.202296
Tennessee,Hancock,36.52142,-83.227453
Tennessee,Hardeman,35.218131,-88.989037
Tennessee,Hardin,35.201893,-88.185696
Tennessee,Hawkins,36.452206,-82.931386
Tennessee,Haywood,35.58669,-89.282536
Tennessee,Henderson,35.653995,-88.387674
Tennessee,Henry,36.325398,-88.300384
Tennessee,Hickman,35.802396,-87.467114
Tennessee,Houston,36.285777,-87.705605
Tennessee,Humphreys,36.04044,-87.790625
Tennessee,Jackson,36.354242,-85.674182
Tennessee,Jefferson,36.048479,-83.440966
Tennessee,Johnson,36.453204,-81.861237
Tennessee,Knox,35.992727,-83.937721
Tennessee,Lake,36.333905,-89.485537
Tennessee,Lauderdale,35.762951,-89.627732
Tennessee,Lawrence,35.220476,-87.396546
Tennessee,Lewis,35.523244,-87.496983
Tennessee,Lincoln,35.142532,-86.593388
Tennessee,Loudon,35.73745,-84.316204
Tennessee,McMinn,35.424471,-84.619963
Tennessee,McNairy,35.175626,-88.564671
Tennessee,Macon,36.537838,-86.001231
Tennessee,Madison,35.606056,-88.833424
Tennessee,Marion,35.133422,-85.618399
Tennessee,Marshall,35.468387,-86.765886
Tennessee,Maury,35.615696,-87.077763
Tennessee,Meigs,35.503397,-84.823888
Tennessee,Monroe,35.447666,-84.249786
Tennessee,Montgomery,36.500354,-87.380887
Tennessee,Moore,35.288889,-86.358684
Tennessee,Morgan,36.138697,-84.639262
Tennessee,Obion,36.358175,-89.150175
Tennessee,Overton,36.34485,-85.283076
Tennessee,Perry,35.659785,-87.877027
Tennessee,Pickett,36.559364,-85.075741
Tennessee,Polk,35.109437,-84.541112
Tennessee,Putnam,36.140807,-85.496928
Tennessee,Rhea,35.600587,-84.949552
Tennessee,Roane,35.847472,-84.523861
Tennessee,Robertson,36.52753,-86.869377
Tennessee,Rutherford,35.843369,-86.417213
Tennessee,Scott,36.437239,-84.498386
Tennessee,Sequatchie,35.372335,-85.410344
Tennessee,Sevier,35.791284,-83.521955
Tennessee,Shelby,35.183794,-89.895397
Tennessee,Smith,36.25565,-85.942078
Tennessee,Stewart,36.511756,-87.851548
Tennessee,Sullivan,36.510212,-82.299397
Tennessee,Sumner,36.470015,-86.458517
Tennessee,Tipton,35.500297,-89.763708
Tennessee,Trousdale,36.39303,-86.156691
Tennessee,Unicoi,36.100215,-82.418245
Tennessee,Union,36.28414,-83.836088
Tennessee,Van Buren,35.699245,-85.458411
Tennessee,Warren,35.678282,-85.777363
Tennessee,Washington,36.295665,-82.495037
Tennessee,Wayne,35.242687,-87.819703
Tennessee,Weakley,36.303523,-88.720785
Tennessee,White,35.927062,-85.455766
Tennessee,Williamson,35.894972,-86.896958
Tennessee,Wilson,36.148476,-86.29021
Texas,Anderson,31.841266,-95.661744
Texas,Andrews,32.312258,-102.640206
Texas,Angelina,31.251951,-94.611056
Texas,Aransas,28.104225,-96.977983
Texas,Archer,33.616305,-98.687267
Texas,Armstrong,34.964179,-101.356636
Texas,Atascosa,28.894296,-98.528187
Texas,Austin,29.891901,-96.27017
Texas,Bailey,34.067521,-102.830345
Texas,Bandera,29.755748,-99.260682
Texas,Bastrop,30.103128,-97.311859
Texas,Baylor,33.618172,-99.197228
Texas,Bee,28.416077,-97.742586
Texas,Bell,31.04211,-97.481921
Texas,Bexar,29.448671,-98.520147
Texas,Blanco,30.265605,-98.399977
Texas,Borden,32.744062,-101.433033
Texas,Bosque,31.900764,-97.637632
Texas,Bowie,33.446051,-94.422375
Texas,Brazoria,29.167818,-95.434647
Texas,Brazos,30.656725,-96.302389
Texas,Brewster,29.808997,-103.252458
Texas,Briscoe,34.525173,-101.205893
Texas,Brooks,27.034994,-98.215276
Texas,Brown,31.764103,-98.99847
Texas,Burleson,30.493487,-96.622091
Texas,Burnet,30.789616,-98.201195
Texas,Caldwell,29.840422,-97.631097
Texas,Calhoun,28.445366,-96.5833
Texas,Callahan,32.29315,-99.372249
Texas,Cameron,26.102923,-97.478958
Texas,Camp,32.974581,-94.979085
Texas,Carson,35.405496,-101.355356
Texas,Cass,33.083698,-94.357579
Texas,Castro,34.533621,-102.258786
Texas,Chambers,29.703933,-94.668875
Texas,Cherokee,31.843859,-95.156504
Texas,Childress,34.529337,-100.208336
Texas,Clay,33.785904,-98.212918
Texas,Cochran,33.60844,-102.830449
Texas,Coke,31.877105,-100.635236
Texas,Coleman,31.914205,-99.346622
Texas,Collin,33.193885,-96.578153
Texas,Collingsworth,34.963358,-100.272135
Texas,Colorado,29.595908,-96.508389
Texas,Comal,29.803019,-98.255201
Texas,Comanche,31.951645,-98.549617
Texas,Concho,31.318865,-99.863648
Texas,Cooke,33.639169,-97.210372
Texas,Coryell,31.391177,-97.798022
Texas,Cottle,34.091906,-100.276442
Texas,Crane,31.422797,-102.487774
Texas,Crockett,30.717532,-101.404211
Texas,Crosby,33.609144,-101.29871
Texas,Culberson,31.445909,-104.526945
Texas,Dallam,36.28637,-102.59402
Texas,Dallas,32.766987,-96.778424
Texas,Dawson,32.741934,-101.947322
Texas,Deaf Smith,34.940766,-102.607564
Texas,Delta,33.385933,-95.67335
Texas,Denton,33.205005,-97.119046
Texas,DeWitt,29.082342,-97.361656
Texas,Dickens,33.614666,-100.786095
Texas,Dimmit,28.423587,-99.765871
Texas,Donley,34.955036,-100.815846
Texas,Duval,27.681123,-98.497393
Texas,Eastland,32.324645,-98.83656
Texas,Ector,31.865301,-102.542507
Texas,Edwards,29.985877,-100.307373
Texas,Ellis,32.347279,-96.798336
Texas,El Paso,31.766403,-106.241391
Texas,Erath,32.238136,-98.222377
Texas,Falls,31.25193,-96.934128
Texas,Fannin,33.591161,-96.104988
Texas,Fayette,29.877886,-96.921231
Texas,Fisher,32.740473,-100.40312
Texas,Floyd,34.073731,-101.303274
Texas,Foard,33.980404,-99.777427
Texas,Fort Bend,29.526602,-95.771015
Texas,Franklin,33.175846,-95.219066
Texas,Freestone,31.701654,-96.144237
Texas,Frio,28.869334,-99.108788
Texas,Gaines,32.743942,-102.631562
Texas,Galveston,29.228706,-94.894865
Texas,Garza,33.183792,-101.301134
Texas,Gillespie,30.32639,-98.942106
Texas,Glasscock,31.868591,-101.528971
Texas,Goliad,28.6607,-97.430415
Texas,Gonzales,29.468704,-97.477738
Texas,Gray,35.402542,-100.812374
Texas,Grayson,33.624508,-96.675699
Texas,Gregg,32.486397,-94.816276
Texas,Grimes,30.543231,-95.988082
Texas,Guadalupe,29.583208,-97.949027
Texas,Hale,34.068436,-101.822888
Texas,Hall,34.453189,-100.576343
Texas,Hamilton,31.706982,-98.111794
